code,office,borough,address,latitude,longitude,install_date,LCD,QR,type
301,경복궁역 7번출구 앞,종로구,서울특별시 종로구 사직로 지하130,37.575794,126.971451,07/10/2015,16,,LCD
302,경복궁역 4번출구 뒤,종로구,서울특별시 종로구 사직로 지하130,37.575947,126.97406,07/10/2015,12,,LCD
303,광화문역 1번출구 앞,종로구,서울특별시 종로구 세종대로 지하189,37.57177,126.974663,07/10/2015,8,,LCD
304,광화문역 2번출구 앞,종로구,서울특별시 종로구 세종대로 지하172,37.572113,126.977577,26/01/2021,,7,QR
305,종로구청 옆,종로구,서울특별시 종로구 삼봉로 43,37.572582,126.978355,07/10/2015,16,,LCD
306,광화문역 7번출구 앞,종로구,서울특별시 종로구 세종대로 지하172,37.570808,126.976433,07/10/2015,19,,LCD
307,서울역사박물관 앞,종로구,서울특별시 종로구 새문안로 55,37.57,126.9711,07/10/2015,11,,LCD
308,광화문 S타워 앞,종로구,서울특별시 종로구 새문안로 82,37.569969,126.973938,26/01/2021,,20,QR
309,광화문역 6번출구 옆,종로구,서울특별시 종로구 세종대로 지하172,37.569889,126.976456,07/10/2015,13,,LCD
314,국립현대미술관,종로구,서울특별시 종로구 삼청로 30,37.579708,126.980858,07/10/2015,10,,LCD
316,종각역 1번출구 앞,종로구,서울특별시 종로구 종로 47,37.570396,126.981789,07/10/2015,12,,LCD
326,안국역 5번출구 앞,종로구,서울특별시 종로구 율곡로 지하62,37.576241,126.98616,07/10/2015,19,,LCD
327,낙원상가 옆,종로구,서울특별시 종로구 삼일대로 428,37.573357,126.987465,07/10/2015,10,,LCD
328,탑골공원 앞,종로구,서울특별시 종로구 종로 99,37.570396,126.98819,07/10/2015,11,,LCD
329,청계2가 사거리 옆,종로구,서울특별시 종로구 청계천로 93,37.568344,126.987892,07/10/2015,8,,LCD
334,종로3가역 2번출구 뒤,종로구,서울특별시 종로구 종로 지하129,37.570599,126.991791,07/10/2015,10,,LCD
335,종로3가역 15번출구 앞,종로구,서울특별시 종로구 종로 지하129,37.570198,126.991257,07/10/2015,10,,LCD
337,창경궁 입구,종로구,서울특별시 종로구 창경궁로 185,37.578979,126.996475,07/10/2015,5,,LCD
338,세운스퀘어 앞,종로구,서울특별시 종로구 창경궁로 109,37.570957,126.997124,07/10/2015,18,,LCD
339,종로4가 사거리,종로구,서울특별시 종로구 종로 185,37.571068,126.998192,07/10/2015,10,,LCD
340,혜화동 로터리,종로구,서울특별시 종로구 창경궁로 271-1,37.585629,127.000679,07/10/2015,8,,LCD
341,혜화역 3번출구 뒤,종로구,서울특별시 종로구 대학로 지하120,37.58157,127.001785,07/10/2015,10,,LCD
342,대학로 마로니에공원,종로구,서울특별시 종로구 대학로 104,37.579784,127.002533,07/10/2015,15,,LCD
343,예일빌딩(율곡로) 앞,종로구,서울특별시 종로구 율곡로 238,37.575432,127.004982,08/01/2021,,6,QR
344,성균관대 E하우스 앞,종로구,서울특별시 종로구 율곡로 259,37.574036,127.006721,07/10/2015,10,,LCD
345,서울보증보험본사 앞,종로구,서울특별시 종로구 김상옥로 29,37.573307,127.00071,07/10/2015,15,,LCD
348,독립문역 사거리,종로구,서울특별시 종로구 교북동 10-1,37.572029,126.960785,01/06/2016,14,,LCD
349,사직동주민센터,종로구,서울특별시 종로구 사직로9길 5,37.576332,126.96859,01/06/2016,7,,LCD
351,청운초교 앞 삼거리,종로구,서울특별시 종로구 청운동 108-22,37.585079,126.970619,01/06/2016,8,,LCD
352,중앙고입구 삼거리,종로구,서울특별시 종로구 창덕궁길 191,37.583416,126.985237,01/06/2016,15,,LCD
353,재동초교 앞 삼거리,종로구,서울특별시 종로구 재동 19,37.579388,126.984947,01/06/2016,8,,LCD
354,포르투갈 대사관 앞,종로구,서울특별시 종로구 창덕궁1길 3,37.579155,126.98896,01/06/2016,10,,LCD
355,서울사대부속초교 앞,종로구,서울특별시 종로구 연건동 178-3,37.576508,127.002457,01/06/2016,15,,LCD
356,KT혜화지사 앞,종로구,서울특별시 종로구 대학로 65,37.577145,127.00206,01/06/2016,15,,LCD
358,성대입구 사거리,종로구,서울특별시 종로구 창경궁로 234,37.5825,126.998535,01/06/2016,13,,LCD
359,원남동사거리,종로구,서울특별시 종로구 율곡로 169,37.576061,126.997681,01/06/2016,8,,LCD
361,동묘앞역 1번출구 뒤,종로구,서울특별시 종로구 숭인동 81-39,37.573242,127.015907,01/06/2016,10,,LCD
362,청계8가 사거리,종로구,서울특별시 종로구 청계천로 407,37.572224,127.022705,01/06/2016,10,,LCD
363,신설동역 11번출구 뒤,종로구,서울특별시 종로구 숭인동 1311,37.57576,127.022835,01/06/2016,10,,LCD
364,창신역 1번출구 앞,종로구,서울특별시 종로구 지봉로 87,37.579334,127.015083,01/06/2016,8,,LCD
367,독립문역 3-1번출구,종로구,서울특별시 종로구 무악동 41-7,37.573849,126.958694,01/06/2016,8,,LCD
368,SK 서린빌딩 앞,종로구,서울특별시 종로구 서린동 93-2,37.569248,126.980537,01/06/2016,12,,LCD
369,광화문 시민열린마당,종로구,서울특별시 종로구 세종로 76-5,37.575493,126.9785,01/06/2016,20,,LCD
385,종각역 5번출구,종로구,서울특별시 종로구 서린동 26-1,37.569836,126.982658,06/07/2016,10,,LCD
388,동성중학교 앞,종로구,서울특별시 종로구 혜화동 56,37.585735,127.00161,02/09/2016,10,,LCD
393,동대문역 8번 출구,종로구,서울특별시 종로구 율곡로 지하 308,37.570141,127.009377,26/01/2018,10,,LCD
394,경희궁 자이 3단지,종로구,서울특별시 종로구 경교장길 35,37.56749,126.965919,06/10/2020,,15,QR
395,경희궁 자이 2단지,종로구,서울특별시 종로구 송월길 99,37.568855,126.964561,26/01/2018,8,,LCD
397,종묘공영주차장 건너편,종로구,서울특별시 종로구 종로 지하 200,37.57048,126.996635,30/04/2018,13,,LCD
446,상명대입구,종로구,서울특별시 종로구 홍지문길 1,37.600128,126.957832,01/08/2017,10,,LCD
447,신영동삼거리,종로구,서울특별시 종로구 진흥로 499,37.603992,126.961945,29/10/2020,,6,QR
449,일성아파트,종로구,서울특별시 종로구 평창문화로 119,37.608719,126.972862,01/08/2017,10,,LCD
450,효자동 삼거리,종로구,서울특별시 종로구 효자로13길 45,37.583603,126.972549,07/09/2017,20,,LCD
451,청와대앞길,종로구,서울특별시 종로구 청와대로 73,37.583515,126.979668,07/09/2017,13,,LCD
452,동대문 종합시장 버스정류장,종로구, 종로구 종로5가 11-2,37.571239,127.00441,23/10/2018,13,,LCD
453,종로오가 지하쇼핑센터 14번출구,종로구,종로5가 82-1 ,37.57114,127.000671,31/08/2018,10,,LCD
454,종로2가 버스정류장 (종각방향),종로구, 종로구 종로 79-1,37.570358,126.986382,31/08/2018,13,,LCD
455,삼익한의원,종로구,종로구 종로5가 269-3,37.570961,127.006058,30/08/2018,8,,LCD
456,숭인2동 주민센터 입구 (이강3대냉면),종로구, 종로구 숭인동 183-2,37.574471,127.019829,30/08/2018,10,,LCD
457,종로꽃시장 입구 옆,종로구,종로구 종로6가 94-1,37.57132,127.00721,30/08/2018,10,,LCD
458,광화문역 5번출구,종로구,종로구 세종로 1-68 ,37.569939,126.977539,31/08/2018,21,,LCD
461,서울지방경찰청,종로구,종로구 내자동 186-3 ,37.574364,126.972366,29/10/2018,10,,LCD
462,신영동삼거리(북악터널방향),종로구,종로구 평창문화로 6-4,37.603512,126.962067,20/06/2019,15,,LCD
464,삼청동 골목,종로구,종로구 팔판길 46,37.58419,126.981697,16/08/2019,10,,LCD
465,삼청공원 앞,종로구,서울특별시 종로구 삼청동 25-32,37.587605,126.983597,20/11/2019,5,,LCD
486,평창동주민센터 앞,종로구,서울특별시 종로구 평창동 187-2,,,11/03/2020,5,,LCD
3401,창신두산아파트,종로구,종로구 지봉로5길 7,37.573761,127.013939,11/06/2020,,10,QR
3402,이화공영주차장,종로구,율곡로19길 17-3,37.576607,127.00557,19/04/2020,,10,QR
3403,서울특별시 교육청,종로구,종로구 송월길48,37.569508,126.967011,26/02/2020,,10,QR
3404,서울특별시 중부교육지원청,종로구,종로구 대학로 10,37.571854,127.002358,03/02/2020,,15,QR
3405,파크팰리스,종로구,사직로8길20(내수동95),37.574551,126.970551,11/02/2020,,12,QR
3406,세종로공원,종로구,세종로79-12,37.574059,126.9758,08/05/2020,,20,QR
3407,안국동사거리(신),종로구,안국동175-92,37.575806,126.983391,10/02/2020,,15,QR
3408,종로타워빌딩,종로구,공평동70-4,37.570511,126.983368,10/02/2020,,13,QR
3410,종로3가역 8번출구,종로구,묘동90-3,37.572037,126.991844,11/02/2020,,10,QR
3411,종묘,종로구,종로153-2,37.570702,126.994812,10/02/2020,,10,QR
3412,세운상가,종로구,종로160-1,37.570313,126.994545,11/02/2020,,15,QR
3413,종로플레이스,종로구,인의동28-1,37.5732,126.997963,04/02/2020,,15,QR
3414,종로5가역 4번출구,종로구,종로5가 73-2,37.571175,127.002228,11/02/2020,,10,QR
3415,동대문역6번출구,종로구,창신동487-5,,,26/02/2020,,15,QR
3416,동묘앞역 6번출구,종로구,창신동397-6,37.571533,127.015617,04/02/2020,,15,QR
3417,창신3동주민센터,종로구,창신동23-215,37.577724,127.015251,03/02/2020,,12,QR
3418,창신역2번 출구,종로구,창신동 1-105,37.579987,127.01506,03/02/2020,,10,QR
3419,국립어린이과학관,종로구,창경궁로215(와룡동2-70),37.581947,126.997368,10/02/2020,,15,QR
3420,성균관대입구사거리(맥도날드),종로구,창경궁로241,37.583275,126.998856,04/02/2020,,10,QR
3421,혜화역 1번출구,종로구,대학로144,37.583855,127.001854,04/02/2020,,10,QR
3422,성균관대 정문,종로구,성균관로31,37.584797,126.997131,04/02/2020,,20,QR
3423,현대그룹(본사),종로구,종로구 연지동 1-38,37.575836,127.000694,04/02/2020,,20,QR
3425,광화문 풍림스페이스본 1단지앞,종로구,사직로8길4,37.574848,126.968269,04/05/2020,,15,QR
3426,독립문역 2번출구 뒤,종로구,무악동11-11,37.575016,126.95755,11/02/2020,,10,QR
3427,인왕산 아이파크 정문,종로구,통일로16길8-3,37.576603,126.956749,13/02/2020,,13,QR
3428,서울미술관,종로구,자하문로231,37.595127,126.963493,13/02/2020,,10,QR
3429,AW컨벤션앞,종로구,자하문로255,37.59726,126.963089,13/02/2020,,15,QR
3430,구기치안센터 앞,종로구,비봉길12,37.60854,126.957138,13/02/2020,,10,QR
3431,로제우스 레포츠센터,종로구,진흥로466,37.607601,126.957687,13/02/2020,,10,QR
3432,종로2가 사거리,종로구,종로2가 56-17,37.569992,126.988342,10/02/2020,,15,QR
4702,"평창동 꽃여울(꽃집),스타벅스 앞",종로구,평창12길 3,,,21/07/2020,,5,QR
4710,자교교회 앞,종로구,자하문로 58,,,05/11/2020,,8,QR
4711,올림픽기념 국민생활관 로터리,종로구,종로구 혜화동 9-8,,,10/09/2020,,10,QR
300,정동사거리,중구,서울특별시 중구 정동길 2-1,37.56805,126.969231,07/10/2015,7,,LCD
310,청계광장 옆,중구,서울특별시 중구 세종대로 136,37.568878,126.97747,07/10/2015,13,,LCD
311,서울광장 옆,중구,서울특별시 중구 세종대로 지하 101,37.566612,126.97747,07/10/2015,35,,LCD
312,시청역 1번출구 뒤,중구,서울특별시 중구 세종대로 지하101,37.564674,126.976738,07/10/2015,7,,LCD
318,광교사거리 남측,중구,서울특별시 중구 청계천로 30,37.568527,126.982552,07/10/2015,10,,LCD
320,을지로입구역 4번출구 앞,중구,서울특별시 중구 을지로 55,37.566223,126.983589,07/10/2015,20,,LCD
321,KEB 하나금융그룹 명동사옥 옆,중구,서울특별시 중구 을지로 66,37.565464,126.984138,07/10/2015,15,,LCD
322,명동성당 앞,중구,서울특별시 중구 명동길 74,37.564476,126.986969,07/10/2015,15,,LCD
324,신세계백화점 본점 앞,중구,서울특별시 중구 퇴계로 77,37.56134,126.9804,07/10/2015,10,,LCD
331,을지로2가 사거리 북측,중구,서울특별시 중구 을지로 79,37.566383,126.987206,28/07/2020,,10,QR
332,을지로2가 사거리 남측,중구,중구 을지로2가 149-10 ,37.56599,126.987793,07/10/2015,5,,LCD
336,티마크 호텔 앞,중구,서울특별시 중구 충무로 15,37.562618,126.992836,07/10/2015,10,,LCD
346,맥스타일 앞,중구,서울특별시 중구 마장로 3,37.569183,127.00988,07/10/2015,10,,LCD
347,동대문역사문화공원역 9번출구 앞,중구,서울특별시 중구 장충단로 지하230,37.565331,127.007843,07/10/2015,18,,LCD
370,시청역(2호선) 9번출구 뒤,중구,서울특별시 중구 서소문로 지하127,37.563229,126.974838,15/06/2016,26,,LCD
371,동대입구역 6번출구 뒤,중구,서울특별시 중구 동호로 지하256,37.558872,127.005539,15/06/2016,10,,LCD
372,약수역 3번출구 뒤,중구,서울특별시 중구 다산로 지하122,37.554295,127.0112,15/06/2016,10,,LCD
373,청구 어린이공원,중구,서울특별시 중구 다산로14길 41,37.555859,127.013855,15/06/2016,8,,LCD
374,청구역 2번출구 앞,중구,서울특별시 중구 청구로 지하77,37.560474,127.014076,15/06/2016,10,,LCD
375,다산 어린이공원,중구,서울특별시 중구 다산로40길 37,37.563717,127.018425,15/06/2016,8,,LCD
378,청계7가 사거리,중구,서울특별시 중구 다산로 지하260,37.569805,127.016953,15/06/2016,10,,LCD
379,서울역9번출구,중구,서울특별시 중구 세종대로 지하2,37.556,126.973358,15/06/2016,7,,LCD
380,CJ제일제당 앞,중구,서울특별시 중구 동호로 330,37.563866,127.002747,15/06/2016,8,,LCD
381,장충체육관,중구,서울특별시 중구 장충동2가 200-99,37.558533,127.006989,15/06/2016,10,,LCD
382,약수역 10번출구 앞,중구,서울특별시 중구 신당동 357-1,37.555199,127.010048,15/06/2016,7,,LCD
383,신당역 12번 출구 뒤,중구,서울특별시 중구 신당동 99,37.565849,127.016403,15/06/2016,17,,LCD
384,종로학원본원,중구,서울특별시 중구 청파로 456,37.55978,126.968506,15/06/2016,10,,LCD
387,훈련원공원주차장 앞,중구,서울특별시 중구 을지로 227,37.566994,127.003464,06/07/2016,10,,LCD
389,을지로4가역 1번출구,중구,서울특별시 중구 을지로 지하 178,37.56673,126.996605,03/08/2017,10,,LCD
390,충무로역 1번출구,중구,서울특별시 중구 퇴계로 212,37.56139,126.995354,03/08/2017,10,,LCD
391,정동길입구,중구,서울특별시 중구 세종대로19길 16,37.565437,126.973305,04/09/2017,8,,LCD
398,을지로3가역 3번출구,중구,중구 을지로3가 282-8 ,37.566559,126.992439,26/10/2018,8,,LCD
399,서울역 센트럴 자이아파트,중구,중구 만리동2가 176-1,37.554108,126.965408,12/10/2018,15,,LCD
428,명보사거리,중구,중구 초동 22-2 ,37.5644,126.991432,22/10/2018,10,,LCD
429,송도병원,중구,중구 신당동 432-730,37.549889,127.007347,22/10/2018,8,,LCD
430,KEB하나은행 장충동지점,중구,중구 장충동1가 26-1,37.562172,127.006264,02/11/2018,8,,LCD
431,청계천 영도교,중구,중구 황학동 2472-1 ,37.5709,127.019524,24/09/2020,,15,QR
433,을지로입구역 2번출구,중구,중구 을지로1가 118,37.566345,126.982292,14/12/2018,10,,LCD
434,신당 래미안 버스정류장,중구,중구 신당동 85-730,37.561489,127.023933,06/12/2018,10,,LCD
435,SK 남산빌딩,중구,중구 남대문로5가 520,37.556862,126.975616,06/12/2018,10,,LCD
826,서울역 서부교차로2,중구,서울특별시 중구 만리동1가 22-1,37.555367,126.968643,03/08/2017,20,,LCD
441,염천교사거리,중구,중구 순화동 212-9,37.559891,126.97068,31/01/2020,,15,QR
442,서울역 서부,중구,봉래동 2가 122-11,37.553692,126.97216,03/02/2020,,20,QR
443,호암아트홀,중구,봉래동 2가 122-11,37.562111,126.970718,31/01/2020,,9,QR
444,서울역3번 출구,중구,통일로 20,37.557602,126.97258,03/02/2020,,20,QR
445,대한상공회의소,중구,세종대로 39,37.560291,126.974548,31/01/2020,,10,QR
466,롯데호텔,중구,을지로 30,37.565842,126.979813,28/02/2020,,20,QR
467,한국은행,중구,남대문로 39,37.562214,126.980866,31/01/2020,,16,QR
468,웨스틴 조선호텔,중구,소공로 106,37.564159,126.979485,31/01/2020,,10,QR
469,회현역 1번출구,중구,퇴계로 72,37.559231,126.980141,31/01/2020,,16,QR
470,회현역 7번출구,중구,회현동 1가 23-1,37.55965,126.979889,31/01/2020,,20,QR
471,회현사거리 남측,중구,퇴계로 100,37.56036,126.982651,31/01/2020,,10,QR
472,삼일교(시그니쳐 타워),중구,청계천로 100,37.567871,126.988983,30/01/2020,,12,QR
473,을지로4가역 9번출구,중구,을지로 170,37.566051,126.997986,01/03/2020,,20,QR
474,동대문역사문화공원역 1번출구 뒤편,중구,을지로 281,37.566299,127.008492,29/01/2020,,30,QR
475,ddp패션몰,중구,마장로 22,37.56765,127.01181,29/01/2020,,16,QR
476,광희문,중구,퇴계로 344,37.56443,127.009956,29/01/2020,,10,QR
477,앰배서더 호텔 주변,중구,장충동2가 191-21,37.559288,127.002686,30/01/2020,,10,QR
479,동대입구역 3번 출구,중구,장충동2가 199-4,37.559376,127.006027,30/01/2020,,13,QR
480,약수역 6번 출구,중구,동호로 177,37.554321,127.010704,30/01/2020,,8,QR
481,신당역 10번 출구,중구,청계천로 100,37.567032,127.015793,29/01/2020,,16,QR
482,예수소망교회,중구,청구로 32,37.55994,127.018478,29/01/2020,,10,QR
483,남산타운아파트 버스정류장,중구,신당동 산 24-110,37.547585,127.006439,29/01/2020,,16,QR
484,도동삼거리,중구,남창동 205-166,37.555767,126.977188,13/02/2020,,20,QR
485,서울역4번출구,중구,중구 남대문로5가,37.557404,126.973251,03/02/2020,,30,QR
3013,서울지방고용노동청 앞,중구,서울 중구 삼일대로 363,,,30/06/2020,,10,QR
4761,탐앤탐스 을지로3가점,중구,초동 107-9,,,19/10/2020,,10,QR
4762,국제빌딩,중구,남대문로 109,,,23/09/2020,,10,QR
4772,중앙일보,중구,서소문동58-6,,,05/10/2020,,10,QR
4774,을지로입구역 8번출구,중구,을지로1가 140-1,,,23/09/2020,,9,QR
4775,을지로지하쇼핑센터,중구,을지로1가 199-80,,,24/09/2020,,10,QR
4776,신세계면세점,중구,충무로1가 54-3,,,19/10/2020,,10,QR
4778,대신파이낸스센터,중구,저동1가 48-10,,,19/10/2020,,10,QR
4784,중부경찰서앞 사거리,중구,저동2가 22-1,,,19/10/2020,,10,QR
4785,롯데시티호텔,중구,장교동 74,,,19/10/2020,,8,QR
4791,명동역9번출구,중구,중구 충무로2가 111,,,19/10/2020,,10,QR
800,목월공원 앞,용산구,서울특별시 용산구 원효로4가 109-10,37.532433,126.954742,29/06/2016,15,,LCD
802,한강진역 2번 출구 앞,용산구,서울특별시 용산구 한남동 726-494,37.541153,127.002213,29/06/2016,10,,LCD
803,한남초교 앞 보도육교,용산구,서울특별시 용산구 한남동 725-17,37.538139,127.004097,29/06/2016,10,,LCD
805,문배어린이공원 앞,용산구,서울특별시 용산구 문배동 34-10,37.536758,126.970001,29/06/2016,9,,LCD
806,전자랜드 본관 앞,용산구,서울특별시 용산구 한강로3가 16-8,37.533066,126.960732,29/06/2016,20,,LCD
807,서울역 12번 출구 앞,용산구,서울특별시 용산구 동자동 14-229,37.552277,126.972687,29/06/2016,10,,LCD
808,서빙고동 금호맨션 앞,용산구,서울특별시 용산구 서빙고동 235-5,37.520504,126.989738,29/06/2016,10,,LCD
809,한남 유수지 복개주차장,용산구,서울특별시 용산구 독서당로 18,37.530167,127.007439,29/06/2016,10,,LCD
810,이태원지하보도,용산구,서울특별시 용산구 용산동2가 5-1812,37.53841,126.986649,29/06/2016,10,,LCD
811,녹사평역1번출구,용산구,서울특별시 용산구 용산동2가 6-7,37.53508,126.985382,29/06/2016,20,,LCD
812,용산전쟁기념관,용산구,서울특별시 용산구 용산동1가 8-4,37.53484,126.977661,29/06/2016,20,,LCD
813,삼각지역 3번출구,용산구,서울특별시 용산구 한강로1가 228-1,37.533512,126.972275,29/06/2016,20,,LCD
815,LIG강촌아파트 103동앞,용산구,서울특별시 용산구 이촌동301-5,37.518509,126.978798,29/06/2016,20,,LCD
816,신용산역 6번출구 앞,용산구,서울특별시 용산구 한강대로 115,37.530148,126.968483,06/07/2016,15,,LCD
817,삼각지역 4번출구 앞,용산구,서울특별시 용산구 한강대로 161,37.533451,126.971733,06/07/2016,9,,LCD
818,숙명여대 입구 교차로,용산구,서울특별시 용산구 청파로47길 100,37.544895,126.969383,06/07/2016,15,,LCD
819,선린인터넷 고등학교,용산구,서울특별시 용산구 원효로97길 33-4,37.541653,126.970505,06/07/2016,12,,LCD
820,청파동입구 교차로,용산구,서울특별시 용산구 한강대로 349,37.549026,126.971947,06/07/2016,10,,LCD
822,이촌1동 마을공원,용산구,서울특별시 용산구 이촌로 219,37.522041,126.965523,06/07/2016,10,,LCD
823,효창동주민센터 앞,용산구,서울특별시 용산구 효창동 255-17 임,37.54232,126.96196,06/07/2016,10,,LCD
825,서빙고동 주민센터 앞,용산구,서울특별시 용산구 서빙고로 279,37.520336,126.994263,06/07/2016,15,,LCD
827,국군복지단,용산구,서울특별시 용산구 두텁바위로 54-99,37.541885,126.97966,28/11/2017,20,,LCD
828,숙대입구역 8번,용산구,서울특별시 용산구 한강대로 289,37.544079,126.972,28/11/2017,7,,LCD
829,베르가모앞,용산구,서울특별시 용산구 한강대로 23,37.52293,126.961693,28/11/2017,40,,LCD
830,청암자이아파트앞,용산구,서울특별시 용산구 원효로 35,37.534424,126.94857,28/11/2017,10,,LCD
831,이태원관광특구입구,용산구,서울특별시 용산구 이태원로 134,37.534279,126.988564,28/11/2017,15,,LCD
832,이촌1동 주민센터 뒤,용산구,서울특별시 용산구 이촌로71길 24,37.521282,126.973465,22/12/2017,15,,LCD
834,효창공원앞역 3번출구 뒤,용산구,서울특별시 용산구 백범로 지하 287,37.539009,126.96138,22/12/2017,15,,LCD
835,남영역 건너편,용산구,서울특별시 용산구 한강대로77길 18,37.541981,126.971542,22/12/2017,10,,LCD
836,현대자동차서비스 앞,용산구,서울특별시 용산구 원효로 74,37.531422,126.9515,22/12/2017,15,,LCD
837,한남나들목 입구,용산구,서울특별시 용산구 서빙고로 417,37.52906,127.006729,22/12/2017,10,,LCD
838,숙대입구역 4번출구,용산구,서울특별시 용산구 남영동 19-8,37.54446,126.972389,14/12/2018,8,,LCD
839,보광동 삼성리버빌아파트 앞,용산구,용산구 보광로5길 40,37.52401,127.00145,14/12/2018,10,,LCD
840,용산 파크타워 앞,용산구,용산구 서빙고로 67,37.523651,126.970268,14/10/2018,10,,LCD
841,신용산역 1번 출구,용산구,용산구 한강대로 100,37.52961,126.968872,12/10/2018,15,,LCD
843,녹사평역 광장,용산구,용산구 이태원로 134,37.533798,126.98867,07/10/2018,10,,LCD
844,이촌2동 동원베네스트 아파트 앞,용산구,용산구 이촌로14길 7,37.527149,126.955162,19/10/2018,11,,LCD
845,용산 선인상가,용산구,용산구 한강로3가 3-42,37.5327,126.964378,09/09/2018,22,,LCD
846,용산중학교,용산구,  용산구 후암동 260,37.546638,126.981041,14/12/2018,15,,LCD
847, 국방부민원실옆,용산구,"용산동3가 1번지 앞,
 (이태원로)",37.534523,126.977501,28/03/2020,,15,QR
848, 삼각지12번 출구,용산구,한강로1가 24-7 ,37.535259,126.975052,28/03/2020,,10,QR
849, 삼각지 자이아파트,용산구,한강로1가 80-11 ,37.536079,126.973419,30/03/2020,,15,QR
850, KCC용산월츠타워 ,용산구,백범로90길 90,37.537399,126.968926,28/03/2020,,15,QR
851,효창 푸르지오 앞,용산구,백범로 260,37.540478,126.958115,28/03/2020,,10,QR
852,청암자이APT(103동),용산구,청암동 92-1 ,37.534527,126.947182,28/03/2020,,20,QR
853,용산역 맞은편,용산구,한강로2가 408-5 ,37.528568,126.965691,07/04/2020,,10,QR
854,HID 유족동지회 앞,용산구,이태원로 271,37.538727,127.001549,05/04/2020,,10,QR
855,이촌역5번출구 앞,용산구, 서빙고로 83,37.522724,126.972771,07/04/2020,,15,QR
857, 현대 안성타워,용산구,이태원로 217,37.535023,126.998055,07/04/2020,,15,QR
858,녹사평역3번 출구,용산구,용산동4가 1-1,37.534409,126.986893,07/04/2020,,7,QR
859,남산공원 야외식물원 앞,용산구,이태원동 259-16,37.541885,126.995865,05/04/2020,,10,QR
860,LG한강 자이아파트 앞,용산구,용산구 이촌동 429 ,37.520695,126.970978,07/04/2020,,15,QR
863,이촌역2번 출구,용산구,용산동5가 17,37.52177,126.977005,07/04/2020,,15,QR
864,순천향대학병원(한남오거리),용산구,한남동 705-5 (한남대로),37.535141,127.006004,05/04/2020,,10,QR
865,하얏트호텔 앞,용산구,"한남동 산 10-138
 (소월로)",37.540794,126.997849,05/04/2020,,15,QR
866,브라운스톤 남산아파트,용산구,후암동 458,37.551548,126.97686,30/03/2020,,10,QR
867,서빙고역 광장(1번출구),용산구,서빙고동241-14,37.519909,126.989235,07/04/2020,,10,QR
868,롯데하이마트 용산점 앞,용산구,원효로208,37.53722,126.965019,28/03/2020,,12,QR
869,노들섬 동측 앞,용산구,서울특별시 용산구 이촌동 303-8,37.517296,126.959145,03/04/2020,,10,QR
870,노들섬 서측 앞,용산구,서울특별시 용산구 이촌동 304-11,37.517319,126.958298,03/04/2020,,10,QR
4602,숙명여대앞 버스정류소 주변,용산구,청파로47길 99,,,29/10/2020,,10,QR
4604,원효로다목적체육관 앞,용산구,원효로3가 54-14,,,30/10/2020,,10,QR
4605,"노들섬 다목적홀(동쪽) 숲, 앞",용산구,이촌동 303-15,,,30/10/2020,,10,QR
4616,신용산지하차도 앞,용산구,한강로3가 6,,,30/10/2020,,15,QR
4617,동원베네스트 건너편,용산구,한강로3가 37-2,,,30/10/2020,,6,QR
4618,풍전아파트 건너편,용산구,원효로4가 114-38,,,30/10/2020,,10,QR
4627,효창공원앞역 5번출구 옆,용산구,효창동 12-14,,,29/10/2020,,7,QR
3511,응봉역 1번출구,성동구,서울특별시 성동구 고산자로 123,37.55125,127.035103,01/11/2017,10,,LCD
3513,상왕십리역 1번출구,성동구,서울특별시 성동구 하왕십리동 860-1 ,37.56461,127.029198,01/11/2017,10,,LCD
3514,왕십리교회옆,성동구,서울특별시 성동구 상왕십리동 350-1 ,37.566261,127.023697,01/11/2017,10,,LCD
3515,서울숲 관리사무소,성동구,서울특별시 성동구 성수동1가 678-1,37.542816,127.042084,01/11/2017,20,,LCD
3525,금호스포츠센터앞,성동구,금호로30,37.546089,127.02507,24/10/2018,15,,LCD
3527,왕십리 자이아파트,성동구,성동구 하왕십리동 999,37.56179,127.024391,24/10/2018,8,,LCD
3530,왕십리자이아파트 후문(삼거리),성동구,성동구 하왕십리동 1063,37.560146,127.02636,24/10/2018,15,,LCD
3531,논골사거리(금호도서관 입구),성동구,성동구 금호동1가 1350,37.554779,127.024841,24/10/2018,15,,LCD
3532,왕십리KCC스위첸아파트,성동구,성동구 무학봉길 35,37.56068,127.026779,24/10/2018,15,,LCD
3538,서울숲 IT캐슬,성동구,성동구 성수동1가 671-41,37.550892,127.044762,29/10/2018,14,,LCD
506,금호 어울림 아파트 앞,성동구,서울특별시 성동구 광나루로 249,37.549061,127.057793,07/10/2015,7,,LCD
507,성수아이에스비즈타워 앞,성동구,서울특별시 성동구 성수이로 147,37.548203,127.057114,07/10/2015,7,,LCD
508,성수아카데미타워 앞,성동구,서울특별시 성동구 성수이로 118,37.545166,127.05751,07/10/2015,10,,LCD
509,이마트 버스정류소 옆,성동구,서울특별시 성동구 뚝섬로 379,37.539654,127.052589,07/10/2015,20,,LCD
510,서울숲 남문 버스정류소 옆,성동구,서울특별시 성동구 왕십리로11길 9,37.541222,127.0438,07/10/2015,10,,LCD
511,서울숲역 4번 출구 옆,성동구,서울특별시 성동구 왕십리로 지하77,37.544582,127.044609,07/10/2015,16,,LCD
512,뚝섬역 1번 출구 옆,성동구,서울특별시 성동구 아차산로 18,37.548561,127.045006,07/10/2015,15,,LCD
513,뚝섬역 5번 출구 정류소 옆,성동구,서울특별시 성동구 아차산로 18,37.546307,127.049805,07/10/2015,13,,LCD
514,성수사거리 버스정류장 앞,성동구,서울특별시 성동구 아차산로 171,37.54258,127.063309,07/10/2015,7,,LCD
518,청계천 박물관 앞,성동구,서울특별시 성동구 마장동 610,37.571526,127.035355,29/06/2016,20,,LCD
519,양지사거리,성동구,서울특별시 성동구 홍익동 590,37.566994,127.029915,29/06/2016,20,,LCD
520,상왕십리역 4번 출구 앞,성동구,서울특별시 성동구 하왕십리동 960-3,37.563858,127.030319,29/06/2016,10,,LCD
521,왕십리역 11번 출구 앞,성동구,서울특별시 성동구 행당동 188-9,37.561447,127.03492,29/06/2016,14,,LCD
522,금호역 1번출구 앞,성동구,서울특별시 성동구 금호동3가 1575-3,37.548641,127.016426,29/06/2016,9,,LCD
523,옥수동성당 옆,성동구,서울특별시 성동구 옥수동 산5-148,37.543663,127.014061,29/06/2016,11,,LCD
524,래미안금호하이리버 아파트 102동 옆,성동구,서울특별시 성동구 금호동2가 1220-1,37.5522,127.025055,29/06/2016,10,,LCD
525,한양대병원사거리,성동구,서울특별시 성동구 행당동 20-2,37.558052,127.040352,29/06/2016,20,,LCD
526,용답토속공원 앞,성동구,서울특별시 성동구 용답동 224-1,37.563511,127.056725,29/06/2016,10,,LCD
529,장한평역 8번 출구 앞,성동구,서울특별시 성동구 용답동 224-3,37.561371,127.06366,29/06/2016,15,,LCD
530,청계벽산아파트 앞,성동구,서울특별시 성동구 하왕십리동 286-24,37.568748,127.030403,29/06/2016,9,,LCD
533,우리은행 금호동 지점 앞,성동구,서울특별시 성동구 금호동4가 1101,37.548149,127.021088,29/06/2016,7,,LCD
534,금호사거리,성동구,서울특별시 성동구 금호동2가 1205-1,37.548634,127.025726,29/06/2016,20,,LCD
535,응봉삼거리,성동구,서울특별시 성동구 응봉동 134-26,37.553986,127.033592,29/06/2016,16,,LCD
536,행당역 2번출구 앞,성동구,서울특별시 성동구 행당동 347-11,37.55735,127.029213,29/06/2016,8,,LCD
537,한양대후문역 부근,성동구,서울특별시 성동구 행당동 10,37.560356,127.041397,29/06/2016,10,,LCD
538,답십리역 8번출구 앞,성동구,서울특별시 성동구 용답동 102-1,37.56765,127.051155,29/06/2016,15,,LCD
550,서울시설공단 앞,성동구,서울특별시 성동구 마장동 610,37.57164,127.03566,25/01/2021,,15,QR
556,달맞이공원,성동구,서울특별시 성동구 금호동4가 367-1,37.542053,127.020401,06/07/2016,20,,LCD
557,도선동 주민센터 앞,성동구,서울특별시 성동구 무학로10길 6,37.567642,127.025696,06/07/2016,10,,LCD
558,성동광진 교육지원청 앞,성동구,서울특별시 성동구 고산자로 260,37.564606,127.036522,06/07/2016,20,,LCD
559,왕십리역 4번 출구 건너편,성동구,서울특별시 성동구 왕십리광장로 10-1,37.561096,127.036797,06/07/2016,10,,LCD
560,비전교회 앞,성동구,서울특별시 성동구 동일로 213,37.551205,127.068932,06/07/2016,8,,LCD
561,서울숲역 2번출구 앞,성동구,서울특별시 성동구 왕십리로 64,37.542816,127.04467,06/07/2016,10,,LCD
562,군자지하보도 앞,성동구,서울특별시 성동구 동일로 313,37.559246,127.07341,06/07/2016,10,,LCD
563,성동세무서 건너편,성동구,서울특별시 성동구 광나루로 302,37.547913,127.062752,06/07/2016,10,,LCD
564,금호역 3번출구,성동구,서울특별시 성동구 동호로 99,37.547928,127.015572,06/07/2016,15,,LCD
565,옥수역 3번출구,성동구,서울특별시 성동구 한림말길 56,37.541363,127.017662,06/07/2016,20,,LCD
567,성수역 2번출구 앞,성동구,서울특별시 성동구 아차산로 113,37.54459,127.057083,06/07/2016,15,,LCD
568,청계8가사거리 부근,성동구,서울특별시 동대문구 청계천로 417,37.571102,127.02356,06/07/2016,10,,LCD
569,응봉현대아파트 정류소,성동구,서울특별시 성동구 독서당로 381,37.549583,127.030243,06/07/2016,10,,LCD
578,성동세무서 부근,성동구,서울특별시 성동구 광나루로 303-1,37.548286,127.062088,06/07/2016,8,,LCD
579,마장역 4번출구,성동구,서울특별시 성동구 마장로 292-1,37.565205,127.041847,06/07/2016,8,,LCD
581,용답초등학교,성동구,서울특별시 성동구 용답25길 1,37.561012,127.054237,06/07/2016,10,,LCD
582,경일중학교 앞,성동구,서울특별시 성동구 성수일로 27,37.543179,127.04908,06/07/2016,10,,LCD
583,청계천 생태교실 앞,성동구,서울특별시 성동구 마장로39길 51,37.56797,127.04689,06/07/2016,20,,LCD
583,청계천 생태교실 앞,성동구,서울특별시 성동구 마장로39길 51,,,30/06/2020,,5,QR
585,성수2가1동 공영주차장 인근,성동구,서울특별시 성동구 성수동2가 569-3,37.536808,127.055489,02/09/2016,9,,LCD
586,마장동 주민센터,성동구,서울특별시 성동구 마장로42길 14,37.565941,127.045395,02/09/2016,10,,LCD
587,유니베라 앞,성동구,서울특별시 성동구 성수동2가 276-5,37.545418,127.052643,20/09/2016,10,,LCD
589,성수역3번출구,성동구,서울특별시 성동구 아차산로 100,37.544159,127.056656,19/04/2017,8,,LCD
594,중랑물재생센터(서울새활용플라자),성동구,서울특별시 성동구 자동차시장길 49,37.558365,127.056908,28/08/2017,15,,LCD
3544,한양대역 3번 출구,성동구,왕십리로 206,37.554539,127.043778,13/04/2020,,10,QR
3545,한양대역 1번출구,성동구,왕십리로 206,37.55658,127.043358,13/04/2020,,10,QR
3547,상왕십리역 6번 출입구,성동구,왕십리로374(지하),37.564381,127.02887,14/04/2020,,12,QR
3548,뚝섬역 6번출구,성동구,뚝섬로1길 63,37.546959,127.047669,05/06/2020,,10,QR
3549,건영아파트 앞,성동구,성동구 동일로 265,37.555141,127.071106,11/05/2020,,9,QR
3550,금호나들목,성동구,금호동4가 341,37.544041,127.023201,16/04/2020,,20,QR
3551,성동도로사업소,성동구,성동구 용답동 223-7,37.559799,127.056328,14/04/2020,,15,QR
3552,서울숲 공영주차장앞,성동구,성수동1가719,37.541958,127.04277,13/04/2020,,10,QR
3553,마장역3번출구,성동구,마장로304-6,37.565979,127.043114,14/04/2020,,10,QR
3555,양지사거리(센트라스APT 115동앞),성동구,용답역 2번출구 앞,37.566818,127.029152,14/04/2020,,20,QR
3556,신금호파크자이APT앞,성동구,금호로173,37.555313,127.019791,15/04/2020,,15,QR
3557,서울숲리버뷰자이APT105동 앞,성동구,행당동379,37.55653,127.039131,13/04/2020,,8,QR
3558,마장동 금호어울림APT앞,성동구,마조로64-2,37.563396,127.04187,14/04/2020,,10,QR
3559,성동구민종합체육센터 앞,성동구,왕십리로89,37.54591,127.044601,13/04/2020,,10,QR
3560,성동구 견인차량 보관소 앞,성동구,천호대로336,37.563709,127.05645,14/04/2020,,10,QR
3561,행당동 삼부APT후문,성동구,왕십리로278-17,37.559269,127.038399,14/04/2020,,10,QR
3600,사근빗물펌프장 건너편,성동구,성동구 사근동 239-1,,,03/07/2020,,7,QR
4353,코오롱디지털타워 3차앞,성동구,아차산로49,,,03/11/2020,,8,QR
4360,르노삼성자동차 성수사업소 앞,성동구,광나루로270,,,03/11/2020,,8,QR
4362,행당중학교 후문,성동구,왕십리로189,,,03/11/2020,,8,QR
3500,군자역2번출구,광진구,서울특별시 광진구 능동로 313,37.557587,127.079697,01/11/2017,8,,LCD
3501,광진구청 앞,광진구,서울특별시 광진구 자양로 131,37.539501,127.083,01/11/2017,10,,LCD
3502,중곡역 1번출구,광진구,서울특별시 광진구 능동로 지하 417,37.565659,127.084297,01/11/2017,15,,LCD
3503,광진유진스웰,광진구,서울특별시 광진구 아차산로78길 7,37.550488,127.108955,01/11/2017,20,,LCD
3504,원일교회,광진구,서울특별시 광진구 아차산로 304,37.538052,127.076599,01/11/2017,8,,LCD
3505,신양초교앞 교차로,광진구,서울특별시 광진구 능동로 42,37.535221,127.068398,01/11/2017,12,,LCD
3506,영동대교 북단,광진구,서울특별시 광진구 자양동 203-22,37.537014,127.061096,01/11/2017,10,,LCD
3507,어린이회관,광진구,서울특별시 광진구 능동 465-7,37.545952,127.078003,01/11/2017,39,,LCD
3508,화양사거리,광진구,서울특별시 광진구 화양동 21-6,37.548222,127.067879,01/11/2017,10,,LCD
3509,세종사이버대학교,광진구,서울특별시 광진구 군자동 111-2,37.553417,127.073196,24/09/2020,,20,QR
3510,중곡SK아파트앞,광진구,서울특별시 광진구 용마산로32길 32,37.568649,127.08625,23/03/2018,10,,LCD
3516,구의아리수정수센터앞,광진구,서울특별시 광진구 광나루로 571,37.543705,127.093246,28/11/2017,10,,LCD
3517,용마사거리,광진구,서울특별시 광진구 능동로 373,37.562527,127.082275,28/11/2017,10,,LCD
3518,군자역 7번출구뒤,광진구,서울특별시 광진구 천호대로 지하 550,37.556862,127.07914,28/11/2017,8,,LCD
3520,광진경찰서,광진구,서울특별시 광진구 자양로 167,37.542519,127.084084,26/02/2018,10,,LCD
3521,현대홈타운 뒷길,광진구,서울특별시 광진구 아차산로69길 29,37.543427,127.096619,26/02/2018,10,,LCD
3523,건국대학교 과학관(이과대) 앞,광진구,서울특별시 광진구 능동로 120,37.541718,127.08017,16/04/2018,10,,LCD
3524,세종대학교,광진구,서울특별시 광진구 군자로 114,37.550236,127.073822,09/04/2018,15,,LCD
3528,광진정보도서관,광진구,광장동 141-2,37.550598,127.110512,29/10/2018,8,,LCD
3529,어린이대공원정문,광진구,능동 339-2,37.549789,127.075928,31/10/2018,15,,LCD
3533,건대입구역 사거리(롯데백화점),광진구,광진구 자양동 227-337,37.539139,127.070618,29/10/2018,10,,LCD
3534,건대입구역 5번출구 뒤,광진구,광진구 자양동 1-6 ,37.540138,127.069283,29/10/2018,12,,LCD
3535,중곡사거리(국민은행),광진구,광진구 중곡동 266-5,37.559158,127.087517,29/10/2018,10,,LCD
3536,중앙농협(자양동),광진구,광진구 자양동 730 ,37.531811,127.080742,29/10/2018,10,,LCD
3537,아차산 휴먼시아 아파트 옆,광진구,광진구 구의동 40-2,37.548489,127.093758,29/10/2018,15,,LCD
3541,커먼그라운드,광진구,광진구 자양동 8-6,37.54504,127.089958,14/11/2018,20,,LCD
3542,래미안 구의파크 스위트,광진구,광진구 구의동 229-23,37.54504,127.089958,14/11/2018,17,,LCD
500,어린이대공원역 3번출구 앞,광진구,서울특별시 광진구 능동로 지하210,37.54707,127.074272,07/10/2015,10,,LCD
501,광진구의회 앞,광진구,서울특별시 광진구 능동로 76,37.537308,127.070351,07/10/2015,30,,LCD
502,뚝섬유원지역 1번출구 앞,광진구,서울특별시 광진구 능동로 10,37.53186,127.067192,07/10/2015,27,,LCD
505,자양사거리 광진아크로텔 앞,광진구,서울특별시 광진구 아차산로 355,37.53701,127.082245,07/10/2015,10,,LCD
515,광양중학교 앞,광진구,서울특별시 광진구 자양로3길 7,37.530235,127.08683,07/10/2015,10,,LCD
516,광진메디칼 앞,광진구,서울특별시 광진구 광나루로 355,37.548405,127.069366,07/10/2015,10,,LCD
539,군자교교차로,광진구,서울특별시 광진구 중곡동 263-1,37.559795,127.074203,29/06/2016,10,,LCD
540,군자역 7번출구 베스트샵 앞,광진구,서울특별시 광진구 군자동 499,37.55603,127.078644,29/06/2016,8,,LCD
542,강변역 4번출구 뒤,광진구,서울특별시 광진구 구의동 546-6,37.535465,127.094482,29/06/2016,19,,LCD
543,구의공원(테크노마트 앞),광진구,서울특별시 광진구 구의동 546-3,37.535969,127.094673,02/09/2020,,20,QR
544,광남중학교,광진구,서울특별시 광진구 광장동 561-15,37.54073,127.102905,29/06/2016,20,,LCD
546,잠실대교북단 교차로,광진구,서울특별시 광진구 자양동 722,37.532478,127.085091,29/06/2016,8,,LCD
548,자양나들목,광진구,서울특별시 광진구 자양동 738,37.52977,127.07486,29/06/2016,20,,LCD
549,아차산역 3번출구,광진구,서울특별시 광진구 구의동 96,37.551224,127.089706,29/06/2016,10,,LCD
551,구의삼성쉐르빌 앞,광진구,서울특별시 광진구 구의강변로 106,37.540062,127.094498,06/07/2016,10,,LCD
552,대림아크로리버 앞,광진구,서울특별시 광진구 구의강변로 64,37.536579,127.092972,06/07/2016,10,,LCD
553,중곡 성원APT 앞,광진구,서울특별시 광진구 동일로 459,37.571255,127.079803,06/07/2016,19,,LCD
555,구의3동주민센터,광진구,서울특별시 광진구 강변역로 17,37.537849,127.092171,06/07/2016,9,,LCD
571,어린이대공원역6번출구,광진구,서울특별시 광진구 군자로 74,37.548496,127.07476,06/07/2016,20,,LCD
572,국립정신 건강센터 앞,광진구,서울특별시 광진구 능동로 398,37.56538,127.08651,06/07/2016,20,,LCD
573,구의문주차장 앞,광진구,서울특별시 광진구 능동로 216,37.545231,127.084732,06/07/2016,10,,LCD
574,아차산역4번출구,광진구,서울특별시 광진구 능동로 216,37.551849,127.088982,06/07/2016,40,,LCD
575,중앙농협 중곡지점,광진구,서울특별시 광진구 용마산로 120,37.564293,127.086937,06/07/2016,10,,LCD
576,광나루역 3번 출구,광진구,서울특별시 광진구 아차산로 552,37.54483,127.104263,06/07/2016,10,,LCD
577,광진청소년수련관,광진구,서울특별시 광진구 구천면로 2,37.546547,127.106133,06/07/2016,10,,LCD
584,광진광장 교통섬,광진구,서울특별시 광진구 군자동 374-8,37.547829,127.072632,02/09/2016,20,,LCD
588,뚝섬 유원지역,광진구,서울특별시 광진구 능동로 10,37.532688,127.067497,,,20,QR
590,건국대학교 (입학정보관),광진구,서울특별시 광진구 능동로 120,37.53989,127.073364,30/08/2017,20,,LCD
591,건국대학교 (행정관),광진구,서울특별시 광진구 능동로 120,37.542778,127.075371,30/08/2017,5,,LCD
592,건국대학교 학생회관,광진구,서울특별시 광진구 능동로 120,37.541912,127.077637,30/08/2017,30,,LCD
593,자양중앙나들목,광진구,서울특별시 광진구 자양강변길 301,37.528587,127.077873,24/09/2020,,5,QR
3543,세종대학교(학술정보원),광진구,서울특별시 광진구 능동로 209 세종대학교,37.551373,127.07444,16/12/2019,15,,LCD
3563,구의7단지현대아파트,광진구,광진구 구의강변로3가길 39 ,37.53651,127.091393,09/06/2020,,5,QR
3564,나루마당,광진구,구의동 148-1,37.547752,127.095757,14/04/2020,,20,QR
3566,우성4차아파트,광진구,자양번영로 59,37.535072,127.076111,14/04/2020,,10,QR
3569,건대병원후문,광진구,능동로120-1,37.539566,127.072441,07/05/2020,,10,QR
3570,구의역 리버비스타 오피스텔,광진구,아차산로417,37.538097,127.08902,14/04/2020,,10,QR
3571,화양 APT(횡단보도 옆),광진구,동일로24길5,37.54435,127.065407,13/04/2020,,15,QR
3573,광나루안전체험관,광진구,능동로238,37.551338,127.076714,13/04/2020,,15,QR
3575,자양사거리 (LG 유플러스),광진구,아차산로360,37.536575,127.082581,14/04/2020,,6,QR
3578,중곡동 파크웨이빌딩,광진구,천호대로611,37.555008,127.085815,14/04/2020,,9,QR
3579,광진 캠퍼스시티,광진구,동일로178,37.54789,127.067452,13/04/2020,,20,QR
3581,광진광장,광진구,광나루로389,37.54747,127.073967,16/04/2020,,15,QR
3582,화양동 우체국,광진구,광나루로356,37.547989,127.069504,13/04/2020,,14,QR
3586,군자역 비채온 오피스텔,광진구,광진구 천호대로 530(군자동),37.557713,127.077271,14/04/2020,,8,QR
3587,우성식품 앞,광진구,광나루로 592,,,07/05/2020,,15,QR
3588,세종대학교(영실관),광진구,능동로 209,,,07/05/2020,,10,QR
600,휘경2동 주민센터,동대문구,서울특별시 동대문구 한천로 329,37.589912,127.06868,29/06/2016,13,,LCD
601,용신동주민센터,동대문구,서울특별시 동대문구 용두동 65-25,37.575947,127.037361,29/06/2016,10,,LCD
602,장안동 사거리,동대문구,서울특별시 동대문구 장한로 25길 2,37.572174,127.071388,29/06/2016,10,,LCD
604,답십리초등학교 옆 공원,동대문구,서울특별시 동대문구 전농로3길 23,37.569656,127.055962,29/06/2016,15,,LCD
605,신설동역8번출구,동대문구,서울특별시 동대문구 천호대로 26,37.5742,127.026497,29/06/2016,8,,LCD
606,휘경공고앞,동대문구,서울특별시 동대문구 겸재로 21,37.584625,127.07029,29/06/2016,14,,LCD
607,신이문역 2번출구,동대문구,서울특별시 동대문구 이문동186-1,37.602711,127.067863,29/06/2016,10,,LCD
608,전농삼성아파트,동대문구,서울특별시 동대문구 전농로 192,37.58131,127.055344,29/06/2016,10,,LCD
609,제기2교,동대문구,서울특별시 동대문구 제기동122-388,37.587791,127.037361,29/06/2016,20,,LCD
610,동대문중 교차로,동대문구,서울특별시 동대문구 답십리동 524-1,37.573086,127.052162,29/06/2016,10,,LCD
612,시립동부병원 앞 사거리,동대문구,서울특별시 동대문구 용두동 237-10 ,37.573666,127.030815,29/06/2016,20,,LCD
613,신설동역 10번출구 앞,동대문구,서울특별시 동대문구 신설동 92-34,37.575272,127.023468,29/06/2016,10,,LCD
614,용두동 사거리,동대문구,서울특별시 동대문구 용두동 237-10,37.577686,127.031013,29/06/2016,20,,LCD
615,용두동 래미안허브리츠아파트 앞,동대문구,서울특별시 동대문구 용두동 696-13 ,37.576382,127.03511,29/06/2016,20,,LCD
616,서울시립대 앞,동대문구, 서울특별시 동대문구 전농동 135-5,37.582561,127.054367,29/06/2016,20,,LCD
617,청솔우성아파트 앞,동대문구,서울특별시 동대문구 답십리동 94-2 ,37.574203,127.057693,29/06/2016,20,,LCD
621,동대문중학교 옆,동대문구,서울특별시 동대문구 사가정로 62,37.574718,127.053391,06/07/2016,13,,LCD
622,전농사거리 교통섬,동대문구,서울특별시 동대문구 사가정로 119,37.577793,127.057831,06/07/2016,15,,LCD
623,서울시립대 정문 앞,동대문구,서울특별시 동대문구 서울시립대로 161,37.583698,127.053856,06/07/2016,20,,LCD
624,전농동 동아아파트 앞,동대문구,서울특별시 동대문구 서울시립대로 31,37.574188,127.045891,06/07/2016,10,,LCD
625,답십리초등학교 앞(현대시장 옆),동대문구,서울특별시 동대문구 전농로 34,37.568192,127.057175,06/07/2016,14,,LCD
626,군자교 서측 녹지대,동대문구,서울특별시 동대문구 장한로6길 95,37.561153,127.070969,06/07/2016,10,,LCD
627,장안동삼거리 교통섬,동대문구,서울특별시 동대문구 사가정로 240,37.578632,127.071907,06/07/2016,10,,LCD
628,휘봉고등학교 앞,동대문구,서울특별시 동대문구 한천로 290,37.586815,127.067543,06/07/2016,15,,LCD
630,동대문구 보건소,동대문구,서울특별시 동대문구 천호대로 145,37.574852,127.040306,06/07/2016,15,,LCD
631,답십리역 1번출구,동대문구,서울특별시 동대문구 천호대로 269,37.568184,127.051277,06/07/2016,15,,LCD
633,청량리 기업은행 앞,동대문구,서울특별시 동대문구 홍릉로 1,37.580406,127.044823,06/07/2016,8,,LCD
634,외국어대 정문 앞,동대문구,서울특별시 동대문구 이문로 107,37.59602,127.05983,06/07/2016,20,,LCD
635,시조사 앞 (청량고정문 옆),동대문구,서울특별시 동대문구 이문로1길 11,37.587517,127.052773,06/07/2016,12,,LCD
636,세종대왕기념관 교차로,동대문구,서울특별시 동대문구 회기로 56,37.5909,127.042587,06/07/2016,9,,LCD
637,KAIST 경영대학 앞,동대문구,서울특별시 동대문구 회기로 85,37.591614,127.045792,06/07/2016,10,,LCD
638,서울시립대 정보기술관,동대문구,서울특별시 동대문구 한천로43길 12-14,37.583008,127.060974,06/07/2016,20,,LCD
639,서울시립대 후문,동대문구,서울특별시 동대문구 한천로43길 12-14,37.585197,127.060951,06/07/2016,14,,LCD
640,KEB하나은행 청량리역지점,동대문구,서울특별시 동대문구 왕산로 205,37.582455,127.044495,06/07/2016,6,,LCD
641,용두역 4번출구,동대문구,서울특별시 동대문구 청계천로 563,37.573753,127.038536,06/07/2016,10,,LCD
642,신답역 사거리,동대문구,서울특별시 동대문구 천호대로 231,,,18/06/2020,,9,QR
643,동대문구민체육센터 (육교아래),동대문구,서울특별시 동대문구 장안벚꽃로 77,37.566971,127.074417,06/07/2016,10,,LCD
646,장한평역 1번출구 (국민은행앞),동대문구,서울특별시 동대문구 천호대로 405,37.561867,127.064377,28/11/2017,10,,LCD
647,신이문역 1번출구,동대문구,서울특별시 동대문구 신이문로 44,37.602798,127.067268,28/11/2017,10,,LCD
648,장안동위더스빌옆,동대문구,서울특별시 동대문구 한천로 42,37.5667,127.062424,28/11/2017,15,,LCD
650,중랑교사거리,동대문구,서울특별시 동대문구 망우로 131,37.591534,127.067741,28/11/2017,20,,LCD
652,답십리 래미안엘파인아파트 입구,동대문구,동대문구 전농동 6-6,37.57653,127.065941,04/11/2018,20,,LCD
654,전농동 텃골공원,동대문구,서울특별시 동대문구 사가정로 65,37.577621,127.052109,28/11/2017,10,,LCD
656,영휘원 교차로,동대문구,동대문구 청량리동 199-232,37.587238,127.043137,22/10/2018,10,,LCD
657,동대문롯데캐슬아파트 앞,동대문구,동대문구 답십리로23길 30(전농동 518),37.57576,127.04837,22/10/2018,13,,LCD
658,촬영소 사거리,동대문구,동대문구 답십리로 233(답십리동 2-146),37.572948,127.066147,22/10/2018,10,,LCD
659,제기역1번출구,동대문구,동대문구 용두동 237-10,37.57835,127.033386,22/10/2018,15,,LCD
660,동의보감타워,동대문구,동대문구 왕산로 128,37.577999,127.037628,22/10/2018,10,,LCD
661,경희대학교 청운관,동대문구,동대문구 경희대로 26,37.594601,127.051964,30/08/2018,10,,LCD
663,외대앞역 4번출구,동대문구,동대문구 휘경동 146-42,37.594891,127.063026,14/12/2018,10,,LCD
664,서울시립대 대학본부,동대문구,동대문구 서울시립대로 163 서울시립대학교,37.584129,127.057938,20/11/2019,10,,LCD
665,이문동 쌍용아파트 정문,동대문구,동대문구 한천로58길 47,37.599606,127.068642,19/04/2020,,11,QR
666,이문대성유니드아파트 앞,동대문구,한천로58길 151,37.603622,127.070831,21/04/2020,,20,QR
667,청량차도 육교 밑,동대문구,제기로 126,37.586594,127.046997,19/04/2020,,7,QR
668,서울축산농협(장안지점),동대문구,동대문구 장안동 469-8 ,37.568653,127.069183,22/04/2020,,10,QR
669,청계신한신휴플러스앞 삼거리,동대문구,서울시립대로14,37.572048,127.044663,19/04/2020,,10,QR
670,삼육서울병원 버스정류장,동대문구,망우로74,37.589687,127.061409,22/04/2020,,9,QR
671,대광빌딩,동대문구,동대문구 신설동 168-7 ,37.577343,127.023377,27/03/2020,,10,QR
672,대광고등학교,동대문구,동대문구 신설동 397-2 ,37.57859,127.02385,27/03/2020,,17,QR
673,안암골벽산아파트(후문),동대문구,동대문구 제기동 190-11 ,37.58408,127.031036,28/03/2020,,10,QR
674,고대앞사거리 교통섬,동대문구,동대문구 제기동 142-21 ,37.586552,127.033142,30/03/2020,,15,QR
675,성복교회 앞 (장평교 아래),동대문구,동대문구 장안벚꽃로 139,37.572025,127.077004,16/04/2020,,10,QR
676,FITI시험연구원 앞,동대문구,동대문구 정릉천동로 102,37.581432,127.035477,28/03/2020,,9,QR
677,청량리역 4번 5번출구 사이,동대문구,청량리역환승센터 횡단보도,37.580151,127.045799,19/04/2020,,20,QR
678,장안힐스테이트(아) 앞,동대문구,동대문구 답십리로69길 93,37.576557,127.07431,26/04/2020,,15,QR
679,전농SK아파트 앞,동대문구,동대문구 사가정로 150 ,37.577877,127.061684,16/04/2020,,10,QR
680,꿈마루어린이도서관 앞,동대문구,동대문구 이문로 55,37.592384,127.057411,19/04/2020,,15,QR
681,서울특별시 동부교육지원청(육교),동대문구,동대문구 전농로168,37.579838,127.056374,19/04/2020,,15,QR
4102,휘경1동주민센터 앞,동대문구, 외대역동로6길 3,,,18/09/2020,,10,QR
4103,휘경sk뷰아파트 앞,동대문구,휘경로 71 맞은편,,,18/09/2020,,10,QR
4104,외대앞역 교차로,동대문구, 외대역동로 67 맞은편,,,18/09/2020,,10,QR
4105,하나은행 장안동지점앞,동대문구,천호대로 343,,,18/09/2020,,10,QR
4107,장안동근린공원 입구,동대문구,장안동 300,,,18/09/2020,,10,QR
4108,답십리파크자이아파트 앞,동대문구,답십리로56길 124,,,18/09/2020,,10,QR
4110,용두롯데캐슬리치아파트 앞,동대문구,무학로 178,,,21/09/2020,,10,QR
4112,신이문빗물펌프장 옆,동대문구,이문동 59,,,17/09/2020,,10,QR
4113,한국국방연구원 앞,동대문구,회기로 37,,,17/09/2020,,10,QR
4116,이문e편한세상아파트 앞,동대문구,한천로63길 10,,,18/09/2020,,10,QR
4117,휘경119안전센터 앞,동대문구,망우로 114,,,21/09/2020,,10,QR
4121,서울문화재단 앞,동대문구,청계천로 517,,,21/09/2020,,10,QR
4122,청계9가교차로 앞,동대문구,청계천로 471,,,21/09/2020,,10,QR
4123,배봉초교 교차로,동대문구,사가정로 200,,,18/09/2020,,10,QR
1401,극동늘푸른아파트,중랑구,서울특별시 중랑구 동일로 941,37.614738,127.076363,26/04/2017,15,,LCD
1402,금란주차장 앞,중랑구,서울특별시 중랑구 망우로 448,37.600071,127.102333,26/04/2017,10,,LCD
1403,중화빌딩 앞 (동부시장),중랑구,서울특별시 중랑구 망우로 211,37.59425,127.076576,26/04/2017,15,,LCD
1404,동일로 지하차도,중랑구,서울특별시 중랑구 망우로 233,37.595299,127.080032,02/05/2017,10,,LCD
1405,망우역 1번출구,중랑구,서울특별시 중랑구 망우로55길 11-10,37.599098,127.092949,26/04/2017,10,,LCD
1406,망우청소년수련관,중랑구,서울특별시 중랑구 송림길 156,37.606251,127.108269,26/04/2017,10,,LCD
1407,먹골역 1번출구 뒤,중랑구,서울특별시 중랑구 공릉로 12,37.611511,127.077888,22/06/2017,10,,LCD
1408,먹골역 6번출구 앞,중랑구,서울특별시 중랑구 동일로 지하 901,37.610722,127.077477,26/04/2017,10,,LCD
1410,면목 대원칸타빌아파트,중랑구,서울특별시 중랑구 용마산로 285,37.577782,127.090187,26/04/2017,10,,LCD
1411,상봉시장앞 교차로 한성빌딩 앞,중랑구,서울특별시 중랑구 면목로 456,37.592541,127.086739,27/06/2017,10,,LCD
1412,면목초등학교,중랑구,서울특별시 중랑구 면목로 434,37.590961,127.087067,26/04/2017,10,,LCD
1413,봉화산역 5번출구 뒤,중랑구,서울특별시 중랑구 신내로 지하 232,37.617561,127.090309,26/04/2017,10,,LCD
1414,사가정역 1번출구,중랑구,서울특별시 중랑구 사가정로 지하 393,37.581646,127.088432,22/06/2017,10,,LCD
1416,상봉역 3번출구,중랑구,서울특별시 중랑구 면목로 480,37.595219,127.085999,22/06/2017,10,,LCD
1418,새솔초등학교,중랑구,서울특별시 중랑구 신내역로1길 164,37.617989,127.110542,26/04/2017,15,,LCD
1420,신내어울공원 앞,중랑구,서울특별시 중랑구 신내로16길 17,37.614231,127.096764,26/04/2017,15,,LCD
1421,신내역 4번출구,중랑구,서울특별시 중랑구 신내로 지하 232,37.612461,127.103378,26/04/2017,20,,LCD
1422,신내우디안아파트 1단지,중랑구,서울특별시 중랑구 신내역로 213,37.620098,127.106461,26/04/2017,10,,LCD
1424,양원역 2번출구,중랑구,서울특별시 중랑구 송림길 147,37.606312,127.107742,26/04/2017,10,,LCD
1425,용마문화복지센터,중랑구,서울특별시 중랑구 용마산로86길 9-27,37.58746,127.09597,26/04/2017,10,,LCD
1426,면목도시개발아파트 1동 앞,중랑구,서울특별시 중랑구 용마산로 지하 227,37.573589,127.086823,26/04/2017,15,,LCD
1427,용마산역 1번출구,중랑구,서울특별시 중랑구 용마산로 지하 227,37.574299,127.086914,22/06/2017,10,,LCD
1428,원묵고등학교,중랑구,서울특별시 중랑구 숙선옹주로 66,37.616024,127.085968,22/06/2017,10,,LCD
1429,장안중학교,중랑구,서울특별시 중랑구 동일로 778,37.599957,127.080002,22/06/2017,15,,LCD
1430,중랑구청,중랑구,서울특별시 중랑구 봉화산로 179,37.606152,127.092598,22/06/2017,20,,LCD
1431,중랑구청 사거리,중랑구,서울특별시 중랑구 봉화산로 194,37.606499,127.095451,22/06/2017,10,,LCD
1433,중화역 2번출구,중랑구,서울특별시 중랑구 동일로 지하 797,37.602077,127.079582,22/06/2017,10,,LCD
1434,홈플러스 면목동점,중랑구,서울특별시 중랑구 사가정로 332,37.579868,127.082367,26/04/2017,15,,LCD
1435,능산삼거리,중랑구,서울특별시 중랑구 용마산로 644,37.608681,127.100792,26/04/2017,15,,LCD
1436,영풍마드레빌,중랑구,서울특별시 중랑구 용마산로129가길 41,37.605881,127.100632,26/04/2017,15,,LCD
1437,늘푸른공원 앞,중랑구,서울특별시 중랑구 동일로 594,37.58342,127.079926,26/04/2017,15,,LCD
1438,홈플러스 신내점 앞,중랑구,서울특별시 중랑구 신내로 지하 232,37.616169,127.093483,26/04/2017,15,,LCD
1440,하나은행 면목지점,중랑구,서울특별시 중랑구 동일로 628,37.586372,127.08007,01/08/2017,10,,LCD
1441,신내능말공원,중랑구,서울특별시 중랑구 용마산로136길 33,37.616711,127.110733,26/04/2017,15,,LCD
1442,(구)신한은행 중랑교지점,중랑구,서울특별시 중화동 50-8,37.598591,127.079819,01/11/2017,8,,LCD
1443,구립망우청소년독서실,중랑구,서울특별시 중랑구 망우동 534-23 ,37.59552,127.098778,01/11/2017,10,,LCD
1444,면목4치안센터,중랑구,서울특별시 면목동 646-4,37.574028,127.080544,01/11/2017,10,,LCD
1445,용마지구대,중랑구,서울특별시 면목동 197-5,37.579941,127.079399,01/11/2017,10,,LCD
1446,중랑전화국 교차로,중랑구,서울특별시 중랑구 면목동 282-8,37.591301,127.08033,01/11/2017,10,,LCD
1447,면목역 3번출구,중랑구,서울특별시 면목동 120-2,37.588902,127.08728,01/11/2017,15,,LCD
1448,코스트코 상봉점,중랑구,서울특별시 상봉동 160-3,37.597321,127.089798,01/11/2017,15,,LCD
1449,상봉역 1번출구,중랑구,서울특별시 중랑구 망우로 297,37.596558,127.085838,28/11/2017,15,,LCD
1450,화랑대역 7번출구,중랑구,서울특별시 노원구 화랑로 지하 510,37.619625,127.085014,28/11/2017,10,,LCD
1451,중랑세무서,중랑구,서울특별시 중랑구 망우로 176,37.592758,127.07267,28/11/2017,10,,LCD
1452,겸재교 진입부,중랑구,중랑구 목동 189-7,37.585655,127.07505,29/11/2017,15,,LCD
1453,중랑캠핑숲,중랑구,서울특별시 중랑구 송림길 172,37.604603,127.109253,22/12/2017,9,,LCD
1454,한국전력공사(동대문 중랑지사),중랑구,서울특별시 중랑구 동일로 862,37.607349,127.07859,22/12/2017,10,,LCD
1455,상봉역 2번 출구,중랑구,서울특별시 중랑구 망우로 297,37.596329,127.085899,13/02/2018,10,,LCD
1456,상아빌딩(우림시장 교차로),중랑구,서울특별시 중랑구 용마산로 494,37.595112,127.100327,26/02/2018,10,,LCD
1457,동원사거리,중랑구,서울특별시 중랑구 겸재로 229,37.58976,127.093239,26/02/2018,10,,LCD
1458,상봉터미널2,중랑구,망우동 534-58,37.59734,127.093086,02/11/2018,9,,LCD
1459,용마한신아파트사거리,중랑구,면목동 1086-79,37.59734,127.093086,29/10/2018,10,,LCD
1461,동양엔파트 앞,중랑구,중랑구 망우로 203(중화동),37.593853,127.075073,21/04/2020,,12,QR
1462,동부시장 북문 앞,중랑구,중랑구 망우로 214(상봉동),37.593868,127.076523,05/05/2020,,9,QR
1463,중랑구민회관,중랑구,면목로238,37.573887,127.084831,30/04/2020,,10,QR
1464,중화역 4번출구,중랑구,동일로 813,37.603054,127.079002,21/04/2020,,15,QR
1465,중랑공영차고지 옆,중랑구,서울시 중랑구 신내동 63-6,37.613148,127.105148,14/04/2020,,10,QR
1466,두산대림아파트 삼거리,중랑구,신내로 23길 9,37.618824,127.08757,14/04/2020,,10,QR
1467,sk신내 주유소앞(용마산로),중랑구,신내동 352-2,37.613621,127.101151,14/04/2020,,10,QR
1468,먹골역 7번 출구,중랑구,동일로 909,37.611477,127.077393,21/04/2020,,10,QR
1469,먹골역 4번출구,중랑구,동일로 890,37.609821,127.078133,21/04/2020,,20,QR
1470,중화동 우리은행 앞,중랑구,동일로 837,37.605202,127.078583,20/04/2020,,20,QR
1471,동양쇼핑 정류소 앞,중랑구,묵동 198-7,37.615353,127.078491,18/06/2020,,10,QR
1472,영성빌딩(PAT),중랑구,동일로 824,37.604084,127.079231,20/04/2020,,8,QR
1473,중랑역 1번 출구(중화문화복지센터),중랑구,중랑역로3길 28,37.594891,127.074951,21/04/2020,,10,QR
1474,서울중랑우체국,중랑구,망우로 271,37.595814,127.08284,05/05/2020,,10,QR
1477,면목삼익아파트 앞,중랑구,동일로 501,37.575985,127.079605,14/04/2020,,15,QR
1478,홈플러스 상봉점 앞,중랑구,망우로 353,37.597885,127.091263,21/04/2020,,10,QR
1479,면목 홈플러스 2 ,중랑구,중랑구 사가정로 326,37.581055,127.082092,14/04/2020,,10,QR
1480, 용마지구대 옆,중랑구,중랑구 동일로 566,37.581112,127.080101,16/04/2020,,15,QR
1302,한성대입구역6번출구 뒤,성북구,서울특별시 성북구 동소문로 1,37.588764,127.00631,20/06/2017,5,,LCD
1303,돈암초교 입구,성북구,서울특별시 성북구 동소문로13길 38,37.591694,127.012497,30/06/2017,10,,LCD
1304,만해공원,성북구,서울특별시 성북구 성북로 132-1,37.594402,126.99231,20/06/2017,15,,LCD
1305,성북구청,성북구,서울특별시 성북구 보문로 168,37.589329,127.016434,03/08/2017,15,,LCD
1306,한성대입구역2번출구,성북구,서울특별시 성북구 동소문로 2,37.588448,127.006706,22/06/2017,10,,LCD
1308,안암로터리 버스정류장 앞,성북구,서울특별시 성북구 안암로 69,37.582592,127.028976,20/06/2017,18,,LCD
1314,정릉꿈에그린1단지 201동 앞,성북구,서울특별시 성북구 아리랑로19길 20,37.60244,127.011688,26/04/2017,8,,LCD
1315,고려사대부속중고 정문,성북구,서울특별시 성북구 보국문로29길 23,37.607761,127.003281,26/04/2017,10,,LCD
1316,고려사대부속중고 건너편,성북구,서울특별시 성북구 보국문로29길 23,37.607262,127.002838,26/04/2017,20,,LCD
1318,길음역 3번출구 뒤,성북구,서울특별시 성북구 동소문로 248,37.603085,127.024788,26/04/2017,10,,LCD
1319,종암사거리 분수대,성북구,서울특별시 성북구 종암로 147,37.603043,127.033272,26/04/2017,,10,QR
1320,LG베스트샵 종암점,성북구,서울특별시 성북구 종암로 88,37.59827,127.035027,02/05/2017,10,,LCD
1321,국민은행 종암동지점 앞,성북구,서울특별시 성북구 종암로3길 37-2,37.593288,127.036667,11/05/2017,14,,LCD
1322,래미안라센트아파트 103동 앞,성북구,서울특별시 성북구 종암로3길 37-2,37.598068,127.039276,26/04/2017,10,,LCD
1323,월곡역 입구 육교 밑,성북구,서울특별시 성북구 월곡로 지하 107,37.600433,127.040207,26/04/2017,10,,LCD
1325,상월곡역 4번출구,성북구,서울특별시 성북구 화랑로 148,37.605808,127.047737,26/04/2017,10,,LCD
1326,상월곡역 1번출구,성북구,서울특별시 성북구 화랑로 지하 157,37.606068,127.047318,26/04/2017,10,,LCD
1327,상월곡역 3번출구,성북구,서울특별시 성북구 화랑로 지하 157,37.607342,127.050682,26/04/2017,10,,LCD
1328,월곡역 3번출구,성북구,서울특별시 성북구 월곡로 지하 107,37.602627,127.041634,27/06/2017,10,,LCD
1332,석계역 5번출구 건너편,성북구,서울특별시 노원구 화랑로 지하 347-1,37.613556,127.066093,26/04/2017,10,,LCD
1333,석관초등학교 앞,성북구,서울특별시 성북구 돌곶이로22길 21,37.610523,127.059799,26/04/2017,15,,LCD
1334,석관동주민센터 앞,성북구,서울특별시 성북구 화랑로 296,37.612999,127.06131,26/04/2017,10,,LCD
1336,성북3교 위,성북구,서울특별시 성북구 보문로 192,37.591251,127.014008,13/11/2017,20,,LCD
1337,돈암성당 옆,성북구,서울특별시 성북구 인촌로7길 120,37.590382,127.017136,13/11/2017,10,,LCD
1338,용문2교 옆,성북구,서울특별시 성북구 인촌로7길 24,37.586899,127.020752,13/11/2017,15,,LCD
1339,삼성전자서비스 성북센터,성북구,서울특별시 성북구 월계로 28,37.610569,127.033508,13/11/2017,9,,LCD
1340,광운초등학교 앞,성북구,서울특별시 성북구 한천로 693,37.61956,127.053802,13/11/2017,11,,LCD
1342,성북쉼터 앞,성북구,서울특별시 성북구 성북로21길 32,37.592617,126.997932,13/11/2017,15,,LCD
1343,한성대7번출구 앞,성북구,서울특별시 성북구 동소문로 11,37.589249,127.007378,13/11/2017,10,,LCD
1344,아리랑시네센터 앞,성북구,서울특별시 성북구 아리랑로 82,37.600288,127.013702,13/11/2017,10,,LCD
1346,길음8골어린이공원 옆,성북구,서울특별시 성북구 길음로13길 22,37.608978,127.020248,13/11/2017,15,,LCD
1347,길음래미안아파트817동 상가 앞,성북구,서울특별시 성북구 길음로 33,37.607105,127.0215,13/11/2017,20,,LCD
1348,성북제일새마을금고 본점 앞,성북구,서울특별시 성북구 길음로 20,37.604752,127.022758,13/11/2017,12,,LCD
1349,월계2교 버스정류장 앞,성북구,서울특별시 성북구 한천로101길 18,37.623829,127.050201,13/11/2017,10,,LCD
1351,안암2교 옆,성북구,서울특별시 성북구 안암로 17,37.579449,127.024193,13/11/2017,8,,LCD
1352,e 편한세상 보문아파트 내,성북구,서울특별시 성북구 낙산길 255,37.583881,127.017097,13/11/2017,8,,LCD
1353,금호어울림센터힐 내,성북구,서울특별시 성북구 동소문로34길 73,37.60083,127.023552,13/11/2017,8,,LCD
1354,고려대학교 2번출구,성북구,서울특별시 성북구 종암로 지하 1,37.590714,127.036194,28/11/2017,18,,LCD
1355,보문2교,성북구,서울특별시 성북구 보문로30길 29,37.588699,127.018913,22/12/2017,20,,LCD
1357,북한산보국문역,성북구,서울특별시 성북구 보국문로 91,37.612072,127.008133,26/02/2018,20,,LCD
1358,정릉도서관 앞,성북구,서울특별시 성북구 보국문로 7-10,37.60479,127.010582,26/02/2018,7,,LCD
1359,장위뉴타운 꿈에 숲 코오롱 하늘채 앞,성북구,서울특별시 성북구 월계로 172,37.619801,127.045097,26/02/2018,20,,LCD
1360,정릉역,성북구,서울특별시 성북구 정릉로 272,37.603096,127.013504,26/02/2018,10,,LCD
1361,홍익중고 입구,성북구,서울특별시 성북구 성북로14가길 23,37.592842,127.002121,26/02/2018,20,,LCD
1362,보문역6번출구 앞,성북구,보문로 12,37.585098,127.019676,02/11/2018,10,,LCD
1363,보문4교 인근,성북구,성북구 안암동3가 86-1,37.583752,127.02195,04/11/2018,15,,LCD
1364,성북동 치안센터 앞,성북구,성북로 25,37.590172,127.004089,02/11/2018,10,,LCD
1365,선잠단지 앞,성북구,성북로 102,37.593361,126.999092,27/10/2018,15,,LCD
1366,일신초등학교 옆,성북구,월곡로 74,37.59972,127.040382,26/10/2018,10,,LCD
1367,길음문화복합미디어센터,성북구,길음로7길 20,37.603512,127.02256,02/11/2018,15,,LCD
1368,성신여대입구 교차로,성북구,보문로 34길 87,37.59148,127.020103,02/11/2018,10,,LCD
1369,미아사거리,성북구,성북구 길음동 15-3,37.609131,127.030029,26/10/2018,15,,LCD
1370,복자사랑 피정의 집,성북구,성북로 132-4,37.59454,126.995209,27/10/2018,20,,LCD
1372,KEB은행 고대점,성북구,인촌로 113,37.586445,127.031601,24/10/2018,15,,LCD
1373,성북구보건소 건너편,성북구,화랑로 63,37.602291,127.038979,24/09/2020,,8,QR
1375,생명의 전화 종합복지관 앞 교차로,성북구,하월곡동 96-1,37.603909,127.037376,27/12/2018,20,,LCD
1376,한국과학기술연구원 중문,성북구,서울특별시 성북구 화랑로14길 5,37.600239,127.04538,21/05/2019,7,,LCD
1377,한국과학기술연구원 북문,성북구,서울특별시 성북구 화랑로14길 5,37.603958,127.045341,21/05/2019,10,,LCD
1379,길음뉴타운푸르지오아파트 3단지,성북구,성북구 길음동,37.60936,127.018173,26/03/2020,,15,QR
1380,월곡역 5번출구 앞,성북구,하월곡동 226-8(도로),37.601086,127.041237,30/03/2020,,10,QR
1381,석계역 4번출구 뒤,성북구,성북구 석관동 375-42,37.614784,127.067001,25/03/2020,,10,QR
1382,월곡래미안아파트 입구,성북구,성북구 하월곡동 225-5(공),,,26/03/2020,,10,QR
1384,성신여대입구역 5번출구,성북구,성북구 동선동 133-2 앞,37.592827,127.016289,28/03/2020,,10,QR
1385,성신여대입구역 3번출구 앞,성북구,성북구 동소문동5가 65-16,37.592365,127.016289,17/06/2020,,10,QR
1386,동선고가차도 초입,성북구,"성북구 동선동1가 118-2(도로)
 (동선동1가 120-1 건물 옆)",37.594158,127.018967,28/03/2020,,10,QR
1388,커핀그루나루,성북구,성북구 동소문동3가 65-3,37.590881,127.011704,28/03/2020,,10,QR
1390,석관래미안아트리치,성북구,석관동 323-15앞,37.606461,127.061623,05/05/2020,,10,QR
1391,성북청소년센터,성북구,성북구 장위동 135-4,37.617073,127.056244,24/03/2020,,20,QR
1392,돈암삼성풍림아파트,성북구,성북구 돈암동 632-6도,37.597099,127.022629,27/03/2020,,10,QR
1393,미아 구름다리,성북구,돈암동 51-30,37.597778,127.021507,05/05/2020,,10,QR
1394,길음뉴타운 래미안9단지,성북구,성북구 길음동 1286-12,37.602417,127.019714,27/03/2020,,10,QR
1395,레미안장위포레카운티(102동),성북구,성북구 장위동 143-1,37.618179,127.051834,25/03/2020,,20,QR
1396,레미안장위퍼스트하이(513동),성북구,성북구 장위동 201-6,37.618443,127.051453,25/03/2020,,20,QR
1501,"미아역 3번,4번 출구 사이",강북구,서울특별시 강북구 도봉로 196,37.62608,127.026482,03/08/2017,9,,LCD
1503,이디야 커피 수유역점 앞,강북구,서울특별시 강북구 도봉로 355,37.639278,127.026756,11/05/2017,12,,LCD
1504,다이소 삼양시장점,강북구,서울특별시 강북구 삼양로 234,37.624157,127.018623,11/05/2017,10,,LCD
1506,강북문화예술회관,강북구,서울특별시 강북구 삼각산로 85,37.640327,127.013359,11/05/2017,20,,LCD
1509,서울북부수도사업소,강북구,서울특별시 강북구 한천로 935,37.634377,127.035751,22/06/2017,10,,LCD
1510,번동주공5단지 관리사무소 앞,강북구,서울특별시 강북구 오현로25마길 27,37.633717,127.035515,22/06/2017,10,,LCD
1511,번동 금호어울림아파트102동앞,강북구,서울특별시 강북구 오현로31길 85-7,37.631123,127.036034,22/06/2017,9,,LCD
1512,강북중학교 앞,강북구,서울특별시 강북구 한천로150길 67,37.644737,127.026566,22/06/2017,20,,LCD
1513,강북구청 뒷편,강북구,서울특별시 강북구 도봉로89길 13,37.639648,127.025124,22/06/2017,20,,LCD
1514,강북구청 사거리 버스정류소 앞,강북구,서울특별시 강북구 한천로 1009,37.638805,127.028358,11/05/2017,10,,LCD
1515,송천동 주민센터,강북구,서울특별시 강북구 솔샘로 284,37.618286,127.024048,11/05/2017,10,,LCD
1516,우이초등학교 후문 옆,강북구,서울특별시 강북구 삼양로99길 33,37.638706,127.015907,11/05/2017,10,,LCD
1518,SK telecom(수유직영점) 앞,강북구,서울특별시 강북구 삼양로 439,37.643085,127.016167,11/05/2017,10,,LCD
1519,세븐일레븐 수유장미원점 앞,강북구,서울특별시 강북구 삼양로 474,37.645451,127.015617,11/05/2017,10,,LCD
1520,성실교회,강북구,서울특별시 강북구 노해로 50,37.639862,127.022789,25/01/2021,,10,QR
1522,월드전기조명인테리어(우이동),강북구,서울특별시 도봉구 삼양로 574,37.654472,127.012756,22/06/2017,10,,LCD
1525,미아동 복합청사,강북구,서울특별시 강북구 솔매로49길 14,37.62714,127.026695,11/05/2017,10,,LCD
1526,수유동 채선당앞,강북구,서울특별시 강북구 수유동 140,37.641739,127.024628,01/11/2017,8,,LCD
1527,미아역 1번 출구 뒤,강북구,서울특별시 강북구 미아동 194-1,37.627335,127.026054,01/11/2017,10,,LCD
1528,삼각산동 주민센터,강북구,서울특별시 미아동 813-8,37.615036,127.020699,01/11/2017,10,,LCD
1529,미아동 한국전력공사,강북구,서울특별시 미아동 194-1,37.63018,127.02491,01/11/2017,15,,LCD
1530,광산사거리,강북구,서울특별시 강북구 노해로 87 ,37.643551,127.022346,01/11/2017,10,,LCD
1531,미아사거리 1번 출구,강북구,서울특별시 강북구 미아동 66-1,37.613956,127.030251,01/11/2017,10,,LCD
1532,번3동 주민센터 교차로,강북구,서울특별시 강북구 번동 2-2,37.626354,127.047447,01/11/2017,10,,LCD
1533,"번동 주공3, 4단지 교차로",강북구,서울특별시 강북구 번동 254,37.629917,127.040916,01/11/2017,10,,LCD
1534,북서울 꿈의 숲 동문,강북구,서울특별시 강북구 번동 105,37.619637,127.044533,01/11/2017,20,,LCD
1535,효성인텔리안 앞,강북구,서울특별시 수유동 230-7,37.636292,127.023376,01/11/2017,10,,LCD
1536,번동 두산위브 101동 옆,강북구,서울특별시 번동 386-17,37.636261,127.032173,01/11/2017,20,,LCD
1537,북한산 우이역,강북구,서울특별시 강북구 삼양로 670,37.663666,127.012428,26/02/2018,10,,LCD
1538,솔밭공원역,강북구,서울특별시 강북구 삼양로 595,37.656158,127.013138,26/02/2018,8,,LCD
1539,4.19민주묘지역,강북구,서울특별시 강북구 삼양로 519,37.649673,127.013451,26/02/2018,9,,LCD
1540,가오리역,강북구,서울특별시 강북구 삼양로 426,37.64167,127.016884,26/02/2018,10,,LCD
1541,삼양역,강북구,서울특별시 강북구 삼양로 263,37.62653,127.018059,26/02/2018,10,,LCD
1542,삼양사거리역,강북구,서울특별시 강북구 삼양로 197,37.621552,127.02037,26/02/2018,10,,LCD
1543,수유1동 주민센터,강북구,서울특별시 강북구 삼양로 299,37.630188,127.017738,26/02/2018,10,,LCD
1545,솔샘역 2번 출구,강북구,서울특별시 강북구 솔샘로 195,37.62038,127.01368,27/07/2018,10,,LCD
1546,송천동우체국,강북구,강북구 미아동 861-1,37.615459,127.029701,25/10/2018,10,,LCD
1547,꿈의숲 롯데캐슬,강북구,강북구 미아동 1-46,37.618641,127.03624,14/12/2018,15,,LCD
1548,북서울 꿈의숲 서문,강북구,강북구 번동 123,37.622688,127.037811,14/12/2018,15,,LCD
1550,삼각산아이원아파트(105동 옆),강북구,강북구 삼양로 19길 113,37.615223,127.018509,21/07/2020,,10,QR
1551,4.19탑 앞,강북구,수유동 567-69,37.646862,127.008812,25/03/2020,,8,QR
1552,강북구청사거리(던킨도너츠 앞),강북구,강북구 번동 418-1,37.639202,127.027237,25/03/2020,,8,QR
1553,예수그리스도후기성도교회 앞,강북구,강북구 번동 433-1,37.635204,127.033966,26/03/2020,,15,QR
1554,번동사거리,강북구,강북구 번동 430-76,37.635391,127.034554,25/03/2020,,10,QR
1557,신창교,강북구,강북구 번동 612-3,37.632381,127.039307,27/03/2020,,10,QR
1558,강북문화정보도서관,강북구,강북구 번동 139-5,37.625526,127.037323,26/03/2020,,15,QR
1560,도봉세무서 앞,강북구,강북구 도봉로 117,37.619808,127.028526,27/03/2020,,10,QR
1564,4.19민주묘지역 1번출구,강북구,우이동72-229,37.649597,127.013847,25/03/2020,,7,QR
1565,대한병원앞,강북구,수유동45-7,37.635612,127.022995,25/03/2020,,15,QR
1568,4.19민주묘지 입구사거리,강북구,강북구 삼양료 504,37.647934,127.014572,25/03/2020,,10,QR
1569,수유역2번출구,강북구,강북구 수유동,37.63797,127.025902,28/03/2020,,10,QR
1571,북서울 꿈의숲 입구,강북구,번3동 139-4,,,08/05/2020,,20,QR
1572,우이산 입구,강북구,우이동 207-14,,,08/05/2020,,20,QR
1573,현대성우아파트 옆,강북구,미아동 670-33,,,05/05/2020,,10,QR
1574,송중초등학교 옆,강북구,미아동 98-42,,,05/05/2020,,8,QR
3703,신성교회 앞,강북구,서울 강북구 미아동 458-7도,,,04/11/2020,,10,QR
3707,드래곤타워 앞,강북구,서울 강북구 번동 386-16도,,,04/11/2020,,10,QR
3711,월계2교 교차로,강북구,서울 강북구 번동 259도,,,04/11/2020,,10,QR
3714,송천센트레빌,강북구,서울 강북구 미아동 461-4도,,,04/11/2020,,10,QR
1702,녹천역 1번출구 앞,도봉구,서울특별시 도봉구 덕릉로 376,37.646172,127.05056,08/05/2017,10,,LCD
1703,도봉산광역환승센터앞,도봉구,서울특별시 도봉구 도봉로 955,37.68972,127.045197,11/05/2017,15,,LCD
1705,도봉구청 정문앞,도봉구,서울특별시 도봉구 마들로 656,37.669224,127.046516,08/05/2017,8,,LCD
1706,기업은행 앞,도봉구,서울특별시 도봉구 도봉로 683,37.665665,127.042671,27/06/2017,10,,LCD
1707,도봉구민회관,도봉구,서울특별시 도봉구 도봉로 552,37.654461,127.038513,08/05/2017,15,,LCD
1708,보건소사거리(다비치안경창동점),도봉구,서울특별시 도봉구 해등로 150,37.65683,127.039848,11/05/2017,8,,LCD
1709,쌍문역4번출구 주변,도봉구,서울특별시 도봉구 도봉로 지하 486-1,37.650127,127.035347,08/05/2017,15,,LCD
1713,쌍문동 이안아파트 앞,도봉구,도봉구 쌍문동 315-488,,,14/08/2020,10,,LCD
1714,도봉문화정보도서관 삼거리,도봉구,서울특별시 도봉구 덕릉로 315,37.64463,127.044609,01/11/2017,10,,LCD
1715,서울특별시교육청도봉도서관,도봉구,서울특별시 도봉구 삼양로556,37.653179,127.012787,01/11/2017,20,,LCD
1716,하나로마트 창동점,도봉구,서울특별시 도봉구 마들로11길 20,37.654202,127.050728,01/11/2017,10,,LCD
1717,시립창동운동장 입구,도봉구,서울특별시 도봉구 창동 1-24,37.655708,127.050102,01/11/2017,15,,LCD
1719,신도봉사거리 버스정류장,도봉구,서울특별시  도봉구 도봉로 771,37.673283,127.043991,01/11/2017,10,,LCD
1720,도봉구청 옆(중랑천변),도봉구,서울특별시 도봉구 마들로 656,37.668671,127.047981,01/11/2017,27,,LCD
1721,창동역 2번출구,도봉구,서울특별시 창동 74-2 ,37.653015,127.046997,01/11/2017,12,,LCD
1722,창동청소년수련관,도봉구,서울특별시 도봉구 노해로69길 132,37.657799,127.050049,28/11/2017,15,,LCD
1723,방학동학마을도서관,도봉구,서울특별시 도봉구 시루봉로 128,37.662079,127.027718,28/11/2017,10,,LCD
1725,창1동주민센터,도봉구,서울특별시 도봉구 해등로 46,37.647503,127.043312,28/11/2017,10,,LCD
1726,삼익세라믹아파트교차로,도봉구,서울특별시 도봉구 해등로 189,37.658588,127.03521,28/11/2017,8,,LCD
1727,서울도봉초등학교인근,도봉구,서울특별시 도봉구 도봉로173길 96,37.678677,127.040764,28/11/2017,15,,LCD
1728,서울북부지방법원,도봉구,도봉구 도봉동 626-154,37.677666,127.046242,02/07/2018,15,,LCD
1729,파리바게트앞,도봉구,도봉구 도봉동 637-103,37.68401,127.045792,27/10/2018,10,,LCD
1730,도봉산역 교차로 앞,도봉구,도봉구 도봉동 637-2,37.687592,127.045502,27/10/2018,10,,LCD
1731,도봉고등학교 맞은편,도봉구,도봉구 도봉동 282-275,37.6875,127.042557,02/11/2018,15,,LCD
1732,우리은행 앞,도봉구,도봉구 방학동726-40,37.667599,127.042999,27/10/2018,10,,LCD
1733,방학사거리 (봄마당 앞),도봉구,도봉구 방학동 726-149,37.662979,127.041939,27/10/2018,12,,LCD
1734,쌍문현대1차아파트 108동 앞,도봉구,도봉구 쌍문동 59-1,37.65815,127.032669,27/10/2018,10,,LCD
1735,"도봉역 1,2번 출구사이 건너편",도봉구,도봉구 도봉동 637-107,37.679119,127.044983,27/10/2018,13,,LCD
1736,버스정류장 앞,도봉구,도봉구 창동 703-2,37.652241,127.037064,27/10/2018,12,,LCD
1737,하나은행 (창동점),도봉구,도봉구 창동 703-18,37.639702,127.038834,27/10/2018,8,,LCD
1738,창동주공17단지 상가앞,도봉구,도봉구 창동 35-1,37.646309,127.052742,14/12/2018,10,,LCD
1741,제일강산수산입구,도봉구,도봉구 창동 703-9,37.645199,127.032982,27/10/2018,15,,LCD
1742,북한산 코오롱 하늘채,도봉구,도봉구 쌍문동 416-13,37.648891,127.023018,14/12/2018,10,,LCD
1743,창동19단지아파트 관리사무소앞,도봉구,서울시 도봉구 창4동33번지,37.650391,127.052193,17/03/2020,,10,QR
1744,KT방학지사 앞,도봉구,도봉구 방학동 726-92,37.665272,127.043144,21/03/2020,,15,QR
1746, 다이소방학점 앞,도봉구, 도봉구 방학동 726-65,37.666233,127.04332,21/03/2020,,10,QR
1748, 피자헛 앞(도봉병원 옆),도봉구, 도봉구 방학동 726-17,37.668983,127.043762,21/03/2020,,7,QR
1749, ESA아파트 상가 앞,도봉구, 도봉구 방학동 726-73,37.666271,127.04599,21/03/2020,,10,QR
1750, 창포원 남쪽 입구,도봉구, 도봉구 도봉동 22-25,37.688267,127.048897,23/03/2020,,12,QR
1751, 창원초등학교 교차로,도봉구, 도봉구 창동 315,37.652123,127.041702,23/03/2020,,15,QR
1752, 창동 주공 4단지 입구 옆,도봉구, 도봉구 창동 34,37.645481,127.048576,17/03/2020,,10,QR
1754, 창동시장입구 사거리,도봉구, 도봉구 쌍문동 83-7,37.646896,127.033432,17/03/2020,,10,QR
1756,서울북부광역등기국,도봉구,서울시 도봉구 노해로 325,37.651447,127.044708,17/03/2020,,10,QR
1757,솔밭공원역 1번출구 앞,도봉구,삼양로590,37.655685,127.013382,25/03/2020,,10,QR
1758,북서울교회 버스정류소 앞,도봉구,삼양로606,37.65728,127.013756,25/03/2020,,10,QR
1759,서울북부지방법원 앞,도봉구,마들로749,37.677219,127.048637,18/03/2020,,10,QR
1761,방학중학교 앞,도봉구,시루봉로188,37.665623,127.03109,21/03/2020,,10,QR
1762,북한산 한신휴플러스APT앞,도봉구,도봉로136가길73,37.655338,127.042419,18/03/2020,,30,QR
1765,쌍문역 1번 출구(양산부인과 빌딩),도봉구,도봉로496,37.64967,127.035614,18/03/2020,,10,QR
1767,태양중앙교회 앞,도봉구,방학로172,37.66251,127.033279,21/03/2020,,10,QR
1768,신동아타워 버스정류소,도봉구,방학로210,37.662052,127.028755,21/03/2020,,8,QR
1770,도봉한신아파트 주변,도봉구,도봉구 도봉동 646-1,,,30/07/2020,,15,QR
1771,성원APT버스정류소,도봉구,시루봉로6길86,37.657967,127.03009,18/03/2020,,15,QR
1772,시립도봉노인복지관 버스정류소,도봉구,해등로190,37.658051,127.035759,23/03/2020,,10,QR
1774,반석교회(쌍문동),도봉구,노해로239,37.651348,127.034729,17/03/2020,,8,QR
1775,신원리베르텔 앞,도봉구,노해로341(연안식당 창동점 앞),37.651287,127.045548,17/03/2020,,15,QR
4076,진영상운 앞 중랑천 변,도봉구,도봉구 마들로14길 25-9,,,23/12/2020,,10,QR
1601,석계역 문화광장 내 자전거 보관소,노원구,서울특별시 노원구 화랑로 331,37.615299,127.064468,08/05/2017,20,,LCD
1602,광운대역 앞,노원구,서울특별시 노원구 석계로 98-2,37.622662,127.061897,27/06/2017,15,,LCD
1605,헬스케어,노원구,서울특별시 노원구 월계로 378,37.631622,127.061615,22/06/2017,10,,LCD
1606,태릉입구역 3번출구,노원구,서울특별시 노원구 동일로 지하 992-1,37.619171,127.074928,08/05/2017,10,,LCD
1608,공릉역 1번 출구 앞,노원구,서울특별시 노원구 동일로 지하 1074,37.626614,127.072754,26/05/2017,10,,LCD
1610,화랑대역 2번출구 앞,노원구,서울특별시 노원구 화랑로 지하 510,37.620369,127.083641,08/05/2017,20,,LCD
1611,과기대 입구(우),노원구,서울특별시 노원구 공릉로 232,37.62994,127.076553,08/05/2017,20,,LCD
1616,하계2동 공항버스정류장 옆,노원구,서울특별시 노원구 동일로 지하 1196,37.635109,127.068329,08/05/2017,10,,LCD
1617,하계동 중평어린이공원 앞,노원구,서울특별시 노원구 섬밭로 241,37.63715,127.063271,08/05/2017,20,,LCD
1619,중계동 하나프라자빌딩 앞(중1-1),노원구,서울특별시 노원구 한글비석로 235,37.649021,127.076408,26/05/2017,10,,LCD
1620,중계동 노원구민체육센터 옆(중1-2),노원구,서울특별시 노원구 노원로22길 1,37.648209,127.070221,22/06/2017,10,,LCD
1625,상계역(4번출구),노원구,서울특별시 노원구 상계로 182,37.66,127.072968,27/06/2017,20,,LCD
1627,수락산역 4번출구,노원구,서울특별시 노원구 동일로 지하 1662,37.676941,127.055099,31/12/2020,,12,QR
1628,노일초등학교 앞,노원구,서울특별시 노원구 동일로 1652,37.673618,127.055252,22/06/2017,10,,LCD
1630,수연빌딩 앞,노원구,서울특별시 노원구 동일로 지하 1662,37.67625,127.055504,02/09/2020,,10,QR
1634,당고개공원 대여소,노원구,서울특별시 노원구 상계로 283,37.669079,127.077591,08/05/2017,15,,LCD
1635,상계3.4동 주민센터 대여소,노원구,서울특별시 노원구 덕릉로131길 8,37.67271,127.08316,08/05/2017,11,,LCD
1636,백병원 사거리 농협은행 앞,노원구,서울특별시 노원구 동일로 1351,37.649212,127.061768,08/05/2017,10,,LCD
1637,KT 노원점 건물 앞,노원구,서울특별시 노원구 노해로 489,37.654701,127.0634,08/05/2017,15,,LCD
1639,희성오피앙,노원구,서울특별시 노원구 동일로 1701,37.680313,127.055069,08/05/2017,10,,LCD
1640,한내근린공원 북측,노원구,서울특별시 노원구 마들로 86,37.623863,127.068489,31/08/2017,,9,QR
1641,한내근린공원 남측,노원구,서울특별시 노원구 마들로 86,37.621555,127.069511,30/08/2017,15,,LCD
1642,서울여대 남문,노원구,서울특별시 노원구 화랑로51길 38,37.625435,127.088493,23/08/2017,7,,LCD
1643,태릉입구역 8번출구,노원구,서울특별시 노원구 공릉동 687-6,37.617367,127.075211,01/11/2017,10,,LCD
1646,삼육대 입구,노원구,서울특별시 노원구 공릉동 26-43,37.638489,127.107903,01/11/2017,20,,LCD
1650,중계근린공원내,노원구,서울특별시 노원구 중계동 506-3,37.63958,127.065102,01/11/2017,20,,LCD
1651,맥도날드 상계점 앞,노원구,서울특별시 노원구 상계동 1118-9,37.672375,127.055992,01/11/2017,20,,LCD
1652,파르코 앞,노원구,서울특별시 노원구 상계동 1263,37.68,127.05558,01/11/2017,10,,LCD
1653,노원역1번출구,노원구,서울특별시 노원구 상계동 335-4,37.6562,127.063622,01/11/2017,10,,LCD
1654,당고개입구 오거리,노원구,서울특별시 노원구 상계동 172-2,37.663792,127.075447,01/11/2017,15,,LCD
1655,공릉1단지아파트,노원구,서울특별시 동일로 1127,37.631111,127.07016,01/11/2017,15,,LCD
1656,중앙하이츠 아파트 입구,노원구,서울특별시 노원구 노원로 428,37.654999,127.067436,01/11/2017,10,,LCD
1657,노원구청,노원구,서울특별시 노원구 노해로 437 ,37.654049,127.057327,01/11/2017,20,,LCD
1659,중계동 을지중학교,노원구,서울특별시 노원구 중계동 370,37.65033,127.071602,01/11/2017,10,,LCD
1660,서울시립과학관,노원구,서울특별시 노원구 하계동 266,37.642071,127.076622,01/11/2017,8,,LCD
1661,당현천근린공원,노원구,서울특별시 노원구 동일로 1342,37.649639,127.065605,28/11/2017,10,,LCD
1662,노원역7번출구,노원구,서울특별시 노원구 노해로 467,37.654114,127.059151,28/11/2017,15,,LCD
1663,동해문화예술관앞,노원구,서울특별시 노원구 화랑로 429,37.619381,127.057854,28/11/2017,20,,LCD
1664,노해근린공원내,노원구,서울특별시 노원구 노원로22길 1,37.649361,127.070442,28/11/2017,10,,LCD
1665,양지근린공원앞,노원구,서울특별시 노원구 한글비석로 227,37.647335,127.076424,28/11/2017,10,,LCD
1666,노원소방서인근,노원구,서울특별시 노원구 노원로26길 111,37.655781,127.071777,28/11/2017,10,,LCD
1667,중계중학교,노원구,서울특별시 노원구 덕릉로76길 23,37.654499,127.074387,28/11/2017,10,,LCD
1668,중계역 6번출구,노원구,서울특별시 노원구 동일로 지하 1308-1,37.645508,127.063255,28/11/2017,10,,LCD
1669,중계역 3번출구,노원구,서울특별시 노원구 동일로 지하 1308-1,37.643757,127.064987,28/11/2017,9,,LCD
1670,노원경찰서교차로,노원구,서울특별시 노원구 노원로 283,37.64341,127.071838,28/11/2017,15,,LCD
1671,인덕대학교,노원구,서울특별시 노원구 초안산로 12,37.629349,127.054825,28/11/2017,15,,LCD
1672,상계동수락리버시티,노원구,서울특별시 노원구 누원로 18,37.688599,127.053406,28/11/2017,15,,LCD
1673,노원역 5번출구,노원구,서울특별시 노원구 동일로 1404,37.653976,127.060974,28/11/2017,16,,LCD
1674,서울북부고용센터앞,노원구,서울특별시 노원구 노해로 450,37.653549,127.058083,28/11/2017,15,,LCD
1675,월계문화체육센터,노원구,서울특별시 노원구 월계로 280,37.626942,127.05513,22/12/2017,14,,LCD
1677,육군사관학교 앞,노원구,서울특별시 노원구 화랑로 570,37.623165,127.0905,22/12/2017,10,,LCD
1678,성서대학교 밀알관,노원구,서울특별시 노원구 동일로214길 32,37.648438,127.064445,26/02/2018,15,,LCD
1679,삼육대 도서관,노원구,서울특별시 노원구 화랑로 815,37.64283,127.106667,26/02/2018,15,,LCD
1680,삼육대 제3과학관,노원구,서울특별시 노원구 화랑로 653,37.642654,127.108383,26/02/2018,10,,LCD
1681,현대6차 아파트,노원구,서울특별시 노원구 중계로8길 20,37.645802,127.08226,15/03/2018,12,,LCD
1682,중계종합사회복지관 교차로,노원구,서울특별시 노원구 덕릉로 662,37.656799,127.077606,15/03/2018,13,,LCD
1683,노원문화예술회관,노원구,중계동 391-1 ,37.650459,127.080887,27/10/2018,10,,LCD
1684,태릉입구역 5번출구,노원구,동일로 986앞,37.61832,127.07563,27/10/2018,20,,LCD
1685,불암고등학교 앞 횡단보도,노원구,중계로 155,37.64819,127.080482,27/10/2018,8,,LCD
1686,온수골사거리(스타벅스앞),노원구,노원구 동일로227길 85,37.66114,127.058052,02/11/2018,10,,LCD
1688,마들역 7번출구,노원구,노원구 동일로 1530-1,37.665661,127.057297,02/11/2018,9,,LCD
1689,마들역 3번출구,노원구,노원구 상계동 650,37.665249,127.057892,02/11/2018,10,,LCD
1690,도봉운전면허시험장,노원구,노원구 상계동 694-1,37.65773,127.059311,02/11/2018,10,,LCD
1691,노원정보도서관,노원구,노원구 상계동 433-4,37.660709,127.065331,02/11/2018,10,,LCD
1692,온곡초교 교차로,노원구,노원구 상계동 456-23,37.664188,127.06601,14/12/2018,10,,LCD
1693,원자력 병원,노원구,노원구 노원로 75,37.628189,127.082108,29/03/2019,15,,LCD
1695,월계미륭아파트 정문,노원구,노원구 월계동 14 ,37.623417,127.066933,17/06/2020,,10,QR
1696,수락리버시티4단지,노원구,상계동 1195-1 ,37.686451,127.052834,21/03/2020,,10,QR
1697,상계주공2단지 219동,노원구,상계동 740 ,37.650249,127.057152,23/03/2020,,10,QR
1700,상계보람아파트 202동 ,노원구,상계동 456-23  ,37.665215,127.066139,23/03/2020,,15,QR
2901,공릉동풍림아파트 101동,노원구,노원구 섬밭로 139,37.630001,127.065682,24/03/2020,,8,QR
2902,공릉풍림아파트 108동,노원구,노원구 섬밭로 139,37.62862,127.06691,24/03/2020,,12,QR
2903,월계초안아파트 1단지,노원구,노원구 덕릉로60길 185,37.633259,127.0439,24/03/2020,,10,QR
2904,중계3차청구아파트,노원구,노원구 중계로 225,37.650505,127.073982,24/03/2020,,8,QR
2905,중계주공6단지,노원구,노원구 한글비석로8길 41,37.648163,127.078987,26/03/2020,,10,QR
2907, 월계중학교,노원구, 서울특별시 노원구 월계로45가길 54,37.630749,127.053108,24/03/2020,,25,QR
2908, 광운대학교 중앙도서관,노원구, 서울 노원구 광운로 20,37.620003,127.058563,24/03/2020,,20,QR
2909, 석계역 3번 출구,노원구, 서울 노원구 월계동,37.615459,127.067452,25/03/2020,,10,QR
2910,도깨비시장,노원구, 노원구 동일로 1028,37.622093,127.074425,25/03/2020,,10,QR
2911,상계역중앙시장,노원구, 서울 노원구 상계로27길 20,37.659233,127.072098,23/03/2020,,7,QR
2912,대진고등학교,노원구, 서울 노원구 공릉로62가길 47,37.638191,127.073731,23/03/2020,,20,QR
2913,상계8동 주민센터,노원구,서울시 노원구 동일로227길 85,37.666996,127.051529,23/03/2020,,8,QR
2914,서울과학기술대학교(미래관),노원구,노원구 공릉동 172 ,37.628925,127.081429,10/06/2020,,20,QR
2915,서울과학기술대학교(어학교육원),노원구,노원구 공릉동 172 ,37.635109,127.076599,24/03/2020,,20,QR
2917,신창중학교 후문 맞은편 버스정류장,노원구,서울 노원구 월계로45길 92,37.628071,127.046921,30/03/2020,,10,QR
2919,등나무 근린공원(시립북서울미술관 앞) ,노원구,노원구 중계동 508,37.639996,127.066574,23/03/2020,,15,QR
2920,상계중학교(당현2교사거리),노원구,노원구 노원로 398 ,37.651035,127.06871,23/03/2020,,15,QR
2921,중계역 2번출구,노원구,노원구 동일로 1308-1,37.645489,127.064583,26/03/2020,,10,QR
900,은평예술회관,은평구,서울특별시 은평구 녹번동 85-4,37.603943,126.927696,02/09/2016,20,,LCD
901,응암1동사무소,은평구,서울특별시 은평구 응암동 84-14,37.600975,126.926956,02/09/2016,10,,LCD
902,진관동 은빛초등학교,은평구,서울특별시 은평구 진관동 45-21,37.643108,126.918221,02/09/2016,10,,LCD
903,은평뉴타운 아이파크,은평구,서울특별시 은평구 진관동 13-20,37.645866,126.927391,02/09/2016,20,,LCD
904,은평뉴타운 푸르지오,은평구,서울특별시 은평구 진관동 5-8,37.648674,126.930702,02/09/2016,18,,LCD
905,구파발역 2번출구,은평구,서울특별시 은평구 진관동 86-31,37.636234,126.918999,12/12/2020,,9,QR
906,연신내역 5번출구150M 아래,은평구,서울특별시 은평구 대조동 207-8,37.61721,126.919579,02/09/2016,10,,LCD
907,CJ 드림시티,은평구,서울특별시 은평구 역촌동 43-11,37.599491,126.916862,02/09/2016,10,,LCD
908,구산역 4번출구,은평구,서울특별시 은평구 갈현동 536-8,37.613186,126.917351,02/09/2016,10,,LCD
909,백련산 힐스테이트 3차,은평구,서울특별시 은평구 응암동 761-9,37.586994,126.922882,02/09/2016,10,,LCD
911,은평평화공원(역촌역4번출구),은평구,서울특별시 은평구 녹번동 153-31,37.605583,126.922935,02/09/2016,10,,LCD
912,응암오거리,은평구,서울특별시 은평구 응암동 604-5,37.589661,126.916946,02/09/2016,10,,LCD
913,이마트 은평점,은평구,서울특별시 은평구 응암동 90-15,37.6007,126.920128,02/09/2016,15,,LCD
914,새절역 2번출구,은평구,서울특별시 은평구 응암동 610-3,37.590797,126.913651,02/09/2016,20,,LCD
915,증산역 4번출구,은평구,서울특별시 은평구 증산동 199-8,37.584381,126.909897,02/09/2016,10,,LCD
916,평생학습관 앞,은평구,서울특별시 은평구 역촌동 15-40,37.607849,126.921326,02/09/2016,7,,LCD
917,녹번역 4번출구,은평구,서울특별시 은평구 녹번동 55,37.601299,126.935349,02/09/2016,9,,LCD
919,서울혁신파크,은평구,서울특별시 은평구 녹번동 15-2,37.607948,126.932503,02/09/2016,10,,LCD
921,신도고등학교,은평구,서울특별시 은평구 진관동 242-14,37.630016,126.919029,02/09/2016,10,,LCD
922,연신내역 4번출구,은평구,서울특별시 은평구 대조동 227-2,37.617802,126.921967,02/09/2016,10,,LCD
923,국민은행 연서지점,은평구,서울특별시 은평구 불광동 355,37.620949,126.925636,02/09/2016,10,,LCD
924,메뚜기다리,은평구,서울특별시 은평구 진관동 161-9,37.628517,126.929581,02/09/2016,15,,LCD
925,불광역 2번출구,은평구,서울특별시 은평구 불광동 285-43,37.609566,126.930977,02/09/2016,8,,LCD
927,연신내역 3번출구 인근,은평구,서울특별시 은평구 불광동 304-5,37.617855,126.922523,02/09/2016,10,,LCD
928,은평역사한옥박물관,은평구,서울특별시 은평구 진관동 133-29,37.641315,126.938042,02/09/2016,15,,LCD
930,구 서부경찰서 건너편,은평구,서울특별시 은평구 역촌동 41-7,37.601662,126.920303,02/09/2016,7,,LCD
931,역촌파출소,은평구,서울특별시 은평구 역촌동 45-34,37.604736,126.915337,02/09/2016,20,,LCD
932,예일여중,은평구,서울특별시 은평구 연서로 117,37.610004,126.916397,02/09/2016,10,,LCD
933,LG서비스 역촌점,은평구,서울특별시 은평구 서오릉로 163,37.612484,126.914879,02/09/2016,10,,LCD
934,신사동 성당,은평구,서울특별시 은평구 신사동 41-3,37.597141,126.909599,01/11/2017,15,,LCD
937,상림마을 롯데캐슬2단지 옆,은평구,서울특별시 은평구 진관동 30-23,37.645851,126.923798,01/11/2017,15,,LCD
938,금암 문화공원,은평구,서울특별시 진관동 44-28 ,37.644684,126.918457,01/11/2017,15,,LCD
939,은평구청 교차로,은평구,서울특별시 응암동 82-31,37.6017,126.927422,01/11/2017,15,,LCD
941,은평뉴타운 도서관,은평구,서울특별시 진관동 141-27,37.637222,126.933304,01/11/2017,11,,LCD
942,상림마을 생태공원,은평구,서울특별시 진관동 16-4,37.644081,126.929283,01/11/2017,9,,LCD
943,은평구청 보건소,은평구,서울특별시 녹번동 84,37.602402,126.92865,01/11/2017,10,,LCD
945,기자촌 사거리,은평구,서울특별시 은평구 진관동 149-17,37.63414,126.932343,01/11/2017,10,,LCD
946,독바위역,은평구,서울특별시 은평구 불광로 129,37.618439,126.932884,30/05/2018,10,,LCD
947,연신내 선일하이츠빌 정류소,은평구,서울특별시 불광동 484-165,37.622669,126.919991,01/11/2017,10,,LCD
948,디지털미디어 시티역 4번출구,은평구,서울특별시 증산동 239,37.577202,126.902351,01/11/2017,10,,LCD
949,연신내역 1번 출구,은평구,서울특별시 불광동 487-2,37.619781,126.920807,01/11/2017,7,,LCD
950,구산역 2번 출구,은평구,서울특별시 역촌동 1-57,37.610779,126.917351,01/11/2017,5,,LCD
952,서울연신중학교,은평구,서울특별시 불광동 400-4번지,37.62265,126.925247,01/11/2017,10,,LCD
953,서울연신초등학교,은평구,서울특별시 불광동 73-1번지 ,37.625778,126.928818,01/11/2017,10,,LCD
954,은평뉴타운구파발9단지,은평구,서울특별시 은평구 진관3로 77,37.642609,126.921478,28/11/2017,10,,LCD
956,응암시장교차로,은평구,서울특별시 은평구 응암로 248,37.594376,126.918159,28/11/2017,9,,LCD
958,신한은행 응암동 지점 앞,은평구,응암동 98-69,37.600361,126.922813,16/10/2018,13,,LCD
959,구파발10단지 인근,은평구,진관동 72-23,37.643661,126.914558,18/10/2018,10,,LCD
960,구파발역 환승센터,은평구,진관동 67-26,37.638252,126.919456,18/10/2018,15,,LCD
961,불광역 9번 출구,은평구,불광동 281-109,37.61097,126.92981,18/10/2018,8,,LCD
962,은평뉴타운 힐데스하임,은평구,진관동 70-4,37.639259,126.918907,18/10/2018,10,,LCD
963,대호프라자아파트,은평구,은평구 불광동 242-61 ,37.614429,126.932579,16/10/2018,13,,LCD
964,북한산힐스테이트 7차아파트,은평구,은평구 불광동 643-4,37.616112,126.925041,16/10/2018,10,,LCD
965,서울특별시 은평병원,은평구,은평구 응암동 232-3,37.593479,126.923187,16/10/2018,10,,LCD
966,서울혁신파크1,은평구, 은평구 녹번동 5,37.609032,126.934677,28/08/2018,10,,LCD
967,서울혁신파크2,은평구,은평구 녹번동 5,37.60891,126.932419,29/08/2018,13,,LCD
968,은평뉴타운 상림마을 13단지,은평구,은평구 진관4로 48-50,37.64209,126.929413,18/10/2018,7,,LCD
969,은평 지웰테라스,은평구,은평구 진관4로 78-38,37.64386,126.931877,14/12/2018,9,,LCD
971,역촌 센트레빌 아파트,은평구,은평구 역촌동 221,37.602329,126.906548,14/12/2018,10,,LCD
972,수색역,은평구,수색로 261,37.58218,126.894943,14/06/2019,20,,LCD
973,제각말푸르지오 5-1단지 아파트,은평구, 은평구 진관동 144-7 ,37.637348,126.935844,08/04/2020,,10,QR
974,연신초등학교옆 마을마당,은평구,불광동69,37.62672,126.929016,09/04/2020,,10,QR
975,백련산 힐스테이트상가앞,은평구,응암동백련산로38상가앞,37.590363,126.923012,10/04/2020,,10,QR
976,진관고등학교앞,은평구,진관4로26,37.643509,126.924103,09/04/2020,,10,QR
977,신도중학교앞,은평구,진관1로77-30,37.633102,126.931503,08/04/2020,,20,QR
978,녹번 힐스테이트상가앞,은평구,통일로610,37.601009,126.935928,09/04/2020,,20,QR
979,원풍빌라앞,은평구,은평터널로143,37.591862,126.906082,10/04/2020,,10,QR
982,유니클로 은평점앞,은평구,서오릉로32,37.604126,126.925087,10/04/2020,,10,QR
984,상신초등학교앞 버스정류장,은평구,가좌로316,37.59581,126.910263,10/04/2020,,10,QR
985,은평온누리약국앞,은평구,은평로170,37.601192,126.926384,10/04/2020,,10,QR
989,응암 꼬꼬닭치킨호프 앞,은평구,가좌로255,37.591812,126.914833,10/04/2020,,10,QR
991,흥국사 정류장,은평구,은평구 진관동 298-2 ,37.656769,126.942009,06/04/2020,,10,QR
992,북한산입구 정류장,은평구,은평구 진관동 289 ,37.658428,126.94606,06/04/2020,,10,QR
993,은평뉴타운 온뜨락아파트앞,은평구,통일로972,37.630287,126.919563,08/04/2020,,25,QR
994,북한산생태공원입구(교통섬),은평구,불광동638-6,37.610718,126.93911,09/04/2020,,15,QR
995,은평다목적체육관,은평구,진관1로40,37.631409,126.925407,08/04/2020,,15,QR
996,응암역 1번출구,은평구,응암동471-6,37.598606,126.915405,10/04/2020,,10,QR
4652,신사두산위브2차아파트앞,은평구,가좌로12길,,,20/08/2020,,10,QR
4653,LG 베스트샵 앞,은평구,불광로 41,,,03/11/2020,,10,QR
4654,OK부동산 앞,은평구,수색로 270-2,,,03/11/2020,,10,QR
115,마스타 빌딩 앞,서대문구,서울특별시 서대문구 연희로 7,37.558933,126.927116,05/11/2020,,15,QR
116,일진아이윌아파트 옆,서대문구,서울특별시 서대문구 동교로 290,37.564541,126.927071,07/09/2015,5,,LCD
117,홍은사거리,서대문구,마포구 서강로1길 30 ,37.59116,126.94133,07/09/2015,25,,LCD
123,문화촌 공원,서대문구,서울특별시 서대문구 홍제동 277-23,37.59433,126.947388,07/09/2015,20,,LCD
128,신촌역(2호선) 1번출구 옆,서대문구,서울특별시 서대문구 연세로 3-5,37.555496,126.93634,07/09/2015,20,,LCD
131,증산2교,서대문구,서울특별시 서대문구 증가로 264,37.584171,126.911102,07/09/2015,23,,LCD
133,해담는다리,서대문구,서울특별시 서대문구 불광천길 150,37.582031,126.908997,07/09/2015,15,,LCD
134,연세로 명물길,서대문구,서울특별시 서대문구 명물길 33,37.557892,126.93808,29/10/2020,,8,QR
135,명물길 원형무대 앞,서대문구,서대문구 창천동 31-69,37.559101,126.939178,07/09/2015,10,,LCD
137,NH농협 신촌지점 앞,서대문구,서울특별시 서대문구 연세로2다길 58,37.556812,126.943184,07/09/2015,10,,LCD
138,신촌동 제1공영주차장 앞,서대문구,서울특별시 서대문구 증가로 264,37.559177,126.934525,07/09/2015,10,,LCD
139,연세대 정문 건너편,서대문구,서울특별시 서대문구 연세로 42,37.559795,126.934479,07/09/2015,13,,LCD
140,이화여대 후문,서대문구,서울특별시 서대문구 연세로 50-1,37.560009,126.940735,07/09/2015,20,,LCD
141,연대 대운동장 옆,서대문구,서울특별시 서대문구 연세로 50,37.562382,126.932648,07/09/2015,20,,LCD
158,독립문 어린이 공원,서대문구,서울특별시 서대문구 영천동 259-1,37.571259,126.96048,29/06/2016,15,,LCD
159,이대역 4번 출구,서대문구,서울특별시 서대문구 대현동 60-11,37.556953,126.946342,29/06/2016,7,,LCD
160,북아현동 가구거리,서대문구,서울특별시 서대문구 북아현동 251-78,37.557549,126.959381,29/06/2016,20,,LCD
161,무악재역1번 출구,서대문구,서울특별시 서대문구 통일로 380-4,37.582245,126.950645,29/06/2016,8,,LCD
162,봉원고가차도 밑,서대문구,서울특별시 서대문구 대신동 143-1,37.565269,126.946243,29/06/2016,15,,LCD
163,명지전문대학교 정문 앞,서대문구,서울특별시 서대문구 홍은동 산25-3,37.583698,126.924965,29/06/2016,7,,LCD
164,북가좌1동 주민센터,서대문구,서울특별시 서대문구 북가좌동 477-1,37.574478,126.910049,29/06/2016,10,,LCD
165,중앙근린공원,서대문구,서울특별시 서대문구 북가좌동 470-1,37.575138,126.91394,29/06/2016,20,,LCD
166,가재울 초등학교,서대문구,서울특별시 서대문구 연희동 530,37.573277,126.919678,29/06/2016,20,,LCD
167,연가초등학교 옆,서대문구,서울특별시 서대문구 북가좌동 70-119,37.57946,126.91713,29/06/2016,15,,LCD
169,북가좌 삼거리,서대문구,서울특별시 서대문구 북가좌동 400,37.573002,126.907799,29/06/2016,15,,LCD
170,가재울 뉴타운 주유소 옆,서대문구,서울특별시 서대문구 남가좌동 124,37.573112,126.922447,29/06/2016,10,,LCD
171,임광빌딩 앞,서대문구,미근동 317-1,37.564724,126.967278,29/06/2016,10,,LCD
173,서대문역 8번출구 앞,서대문구,서울특별시 서대문구 충정로2가 138,37.564777,126.966148,29/06/2016,8,,LCD
175,홍연2교옆,서대문구,서울특별시 서대문구 홍은동 387-16,37.578072,126.930817,29/06/2016,20,,LCD
176,명지대학교 도서관,서대문구,서울특별시 서대문구 거북골로 34,37.581097,126.924026,24/04/2017,10,,LCD
177,북가좌 초등학교,서대문구,서울특별시 서대문구 거북골로19길 20,37.577675,126.909805,06/07/2016,8,,LCD
178,증산3교 앞,서대문구,서울특별시 서대문구 북가좌동 352-9,37.579876,126.906349,06/07/2016,10,,LCD
179,가좌역 4번출구 앞,서대문구,서울특별시 서대문구 남가좌동 293-3 ,37.569122,126.914795,29/06/2016,15,,LCD
180,충정로역 7번출구 아래,서대문구,서울특별시 서대문구 충정로3가 56-1,37.559967,126.962463,29/06/2016,10,,LCD
188,홍은동 정원여중 입구,서대문구,서울특별시 서대문구 연희로37안길 51,37.586388,126.935127,06/07/2016,10,,LCD
191,서우빌딩(바른학원),서대문구,서울특별시 서대문구 응암로 66,37.578892,126.910736,06/07/2016,10,,LCD
192,연서어린이공원,서대문구,서울특별시 서대문구 연희동 519-7,37.572227,126.923065,06/07/2016,10,,LCD
194,증산교 앞,서대문구,서울특별시 서대문구 불광천길 36,37.577316,126.902969,06/07/2016,10,,LCD
195,모래내고가차도,서대문구,서울특별시 서대문구 연희동 446-76,37.567657,126.917809,06/07/2016,10,,LCD
196,연희교차로 인근,서대문구,서울특별시 서대문구 홍제천로 48,37.56612,126.925896,06/07/2016,10,,LCD
198,충정2교,서대문구,서울특별시 서대문구 충정로3가 155-4,37.562138,126.963776,06/07/2016,15,,LCD
3100,북성초교,서대문구,서울특별시 서대문구 신촌로 235-1,37.557396,126.952164,01/11/2017,8,,LCD
3101,서대문구청,서대문구,서울특별시 서대문구 연희로 242,37.578381,126.936096,01/11/2017,15,,LCD
3102,연희삼거리,서대문구,서울특별시 서대문구 연희로 113,37.567966,126.931725,01/11/2017,10,,LCD
3103,홍제삼거리 북측,서대문구,서대문구 홍제동 161-1,37.5867,126.94677,12/10/2018,8,,LCD
3104,e편한세상 신촌4단지 앞,서대문구,북아현동 251-71,37.558128,126.956207,12/10/2018,13,,LCD
3105,홍은센트레빌 아파트 앞,서대문구,서대문구 홍은동 164-44,37.597149,126.93853,18/10/2018,12,,LCD
3106,홍남교 두바퀴쉼터,서대문구,서대문구 홍제천로111,37.574909,126.926147,21/11/2018,12,,LCD
3107,연희초등학교 앞,서대문구,서대문구 연희동 87-27,37.56974,126.933327,12/10/2018,7,,LCD
3109,북한산더 106동 앞,서대문구,홍은동 137-8 ,37.592934,126.941292,09/04/2020,,15,QR
3110,홍은 현대아이파크 아파트 202동 앞,서대문구,홍은동 202-6,37.589283,126.936943,09/04/2020,,15,QR
3111,무악재역 4번 출구,서대문구,홍제동 25-1,37.582211,126.950165,10/04/2020,,10,QR
3112,독립문역 5번 출구,서대문구,현저동 95-3,37.57386,126.958298,13/02/2020,,9,QR
3113,독립문역사거리,서대문구,현저동 935,37.572205,126.959747,11/02/2020,,25,QR
3114,충정로역 3번 출구,서대문구,합동 31-16,37.560463,126.965523,12/04/2020,,12,QR
3115,북아현 치안센터 인근,서대문구,북아현동 251-73,37.561455,126.95575,12/05/2020,,20,QR
3116,신촌역 4번출구,서대문구,창천동 30-16,37.555504,126.937203,05/04/2020,,10,QR
3117,이화여대 인문관 인근,서대문구,대신동 143-14 ,37.564068,126.945328,12/04/2020,,10,QR
3119,연희 브라운스톤 아파트 앞,서대문구,연희동 209-2,37.565197,126.929855,10/04/2020,,10,QR
3120,DMC엘가아파트 앞,서대문구,남가좌동 105-4,37.569836,126.918091,08/04/2020,,12,QR
3121,가좌삼거리,서대문구,북가좌동 487-1,37.570652,126.912987,08/04/2020,,15,QR
3122,북가좌삼거리2,서대문구,북가좌동474-1,37.574284,126.906464,08/04/2020,,30,QR
3123,DMC파크뷰자이1단지 110동 앞,서대문구,남가좌동 385-13 ,37.572388,126.915108,04/05/2020,,30,QR
3124,DMC센트럴아이파크아파트,서대문구,남가좌동 318-4,37.578121,126.921753,08/04/2020,,20,QR
3125,연희파크푸르지오아파트 앞,서대문구,연희동 736,37.575642,126.927826,10/04/2020,,15,QR
3126,남가좌동 제2공영주차장,서대문구,남가좌동 3-76,37.583344,126.922745,08/04/2020,,10,QR
3127,홍은2파출소 옆,서대문구,서대문구 홍은동424-1,37.583336,126.936287,09/04/2020,,10,QR
3128,동신병원 맞은편,서대문구,서대문구 홍은동274-18,37.581318,126.935997,10/04/2020,,7,QR
3129,DMC래미안e편한세상203동옆,서대문구,서대문구 북가좌동477-1,37.576263,126.911324,22/04/2020,,20,QR
3130,가재울사거리,서대문구,서대문구 남가좌동385-16,37.574348,126.918823,04/05/2020,,20,QR
3131,연가교 교차로,서대문구,서대문구 남가좌동 385-6,37.572159,126.921188,04/05/2020,,15,QR
3132,홍제교,서대문구,서대문구 홍제동394-46,37.591862,126.944214,09/04/2020,,20,QR
3133,핀란드 타워앞,서대문구,서대문구 대현동60-11,37.557114,126.948814,12/04/2020,,18,QR
3134,SK리체블(상수도사업본부),서대문구,서대문구 합동 17-3 ,37.561317,126.966583,12/04/2020,,10,QR
101,(구)합정동 주민센터,마포구,서울특별시 마포구 동교로8길 58,37.549561,126.905754,06/09/2015,5,,LCD
102,망원역 1번출구 앞,마포구,서울특별시 마포구 월드컵로 72,37.555649,126.910629,06/09/2015,20,,LCD
103,망원역 2번출구 앞,마포구,서울특별시 마포구 월드컵로 79,37.554951,126.910835,06/09/2015,14,,LCD
104,합정역 1번출구 앞,마포구,서울특별시 마포구 양화로 59,37.550629,126.914986,06/09/2015,13,,LCD
105,합정역 5번출구 앞,마포구,서울특별시 마포구 양화로 48,37.550007,126.914825,06/09/2015,5,,LCD
106,합정역 7번출구 앞,마포구,서울특별시 마포구 독막로 4,37.548645,126.912827,06/09/2015,10,,LCD
107,신한은행 서교동금융센터점 앞,마포구,서울특별시 마포구 월드컵북로 35,37.55751,126.918503,06/09/2015,5,,LCD
108,서교동 사거리,마포구,서울특별시 마포구 양화로 93,37.552746,126.918617,06/09/2015,10,,LCD
109,제일빌딩 앞,마포구,서울특별시 마포구 어울마당로 26,37.547691,126.919983,07/09/2015,10,,LCD
111,상수역 2번출구 앞,마포구,서울특별시 마포구 와우산로 40,37.547871,126.923531,07/09/2015,10,,LCD
112,극동방송국 앞,마포구,서울특별시 마포구 와우산로 56,37.549202,126.923203,07/09/2015,10,,LCD
113,홍대입구역 2번출구 앞,마포구,서울특별시 마포구 양화로 165,37.557499,126.923805,,,,QR
114,홍대입구역 8번출구 앞,마포구,서울특별시 마포구 양화로18길 3,37.55706,126.924423,07/09/2015,15,,LCD
118,광흥창역 2번출구 앞,마포구,서울특별시 마포구 독막로 지하165,37.547733,126.931763,07/09/2015,10,,LCD
119,서강나루 공원,마포구,서울특별시 마포구 창전로 30,37.545284,126.931053,07/09/2015,10,,LCD
120,신수동 사거리,마포구,서울특별시 마포구 토정로 211,37.545242,126.934113,07/09/2015,5,,LCD
121,마포소방서 앞,마포구,서울특별시 마포구 창전로 76,37.549767,126.933174,07/09/2015,15,,LCD
122,신성기사식당 앞,마포구,서울특별시 마포구 독막로 223-1,37.547459,126.938377,07/09/2015,10,,LCD
124,서강대 정문 건너편,마포구,서울특별시 마포구 서강로16길 72,37.55114,126.936989,07/09/2015,20,,LCD
125,서강대 남문 옆,마포구,서울특별시 마포구 백범로 35,37.549484,126.93895,07/09/2015,15,,LCD
126,서강대 후문 옆,마포구,서울특별시 마포구 대흥로 122,37.550411,126.943848,07/09/2015,20,,LCD
127,현대벤처빌 앞,마포구,서울특별시 마포구 백범로 10,37.55352,126.936951,07/09/2015,15,,LCD
129,신촌역(2호선) 6번출구 옆,마포구,서울특별시 마포구 신촌로 106,37.555054,126.937569,07/09/2015,15,,LCD
130,신촌역(2호선) 7번출구 앞,마포구,서울특별시 마포구 신촌로 94,37.554859,126.936157,07/09/2015,10,,LCD
136,대흥동 주민센터,마포구,서울특별시 마포구 신촌로26길 10,37.556004,126.942299,07/09/2015,7,,LCD
142,아현역 4번출구 앞,마포구,서울특별시 마포구 아현동 329-15,37.557201,126.955666,29/06/2016,11,,LCD
143,공덕역 2번출구,마포구,서울특별시 마포구 공덕동 257-88,37.544579,126.950218,29/06/2016,9,,LCD
144,공덕역 8번출구,마포구,서울특별시 마포구 공덕동 438-5,37.543579,126.951324,29/06/2016,10,,LCD
145,공덕역 5번출구,마포구,서울특별시 마포구 공덕동 237-9,37.54425,126.951637,29/06/2016,9,,LCD
146,마포역 2번출구 뒤,마포구,서울특별시 마포구 도화동 555-2,37.539936,126.945824,29/06/2016,12,,LCD
147,마포역 4번출구 뒤,마포구,서울특별시 마포구 도화동 292-29,37.539272,126.945915,29/06/2016,7,,LCD
148,용강동 주민센터 앞,마포구,서울특별시 마포구 용강동 234-1,37.542347,126.943024,29/06/2016,11,,LCD
150,서강대역 2번출구 앞,마포구,서울특별시 마포구 노고산동 112-13,37.552956,126.934341,29/06/2016,15,,LCD
151,망원1동주민센터,마포구,서울특별시 마포구 망원동 403-2,37.555687,126.905548,29/06/2016,10,,LCD
152,마포구민체육센터 앞,마포구,서울특별시 마포구 망원동 452-4,37.55661,126.898018,24/09/2020,,30,QR
153,성산2교 사거리,마포구,서울특별시 마포구 성산동 54-17,37.564697,126.912613,29/06/2016,10,,LCD
154,마포구청역,마포구,서울특별시 마포구 망원동 477-23,37.560909,126.905495,29/06/2016,13,,LCD
155,가좌역1 번출구 뒤,마포구,서울특별시 마포구 성산동123-29,37.56855,126.914513,29/06/2016,15,,LCD
156,서울서부지방법원 앞,마포구,서울특별시 마포구 공덕동 105-11,37.549904,126.955147,29/06/2016,10,,LCD
157,애오개역 4번출구 앞,마포구,서울특별시 마포구 아현동 607-1,37.553001,126.956688,29/06/2016,12,,LCD
181,망원초록길 입구,마포구,서울특별시 마포구 마포나루길 467,37.551342,126.902672,06/07/2016,15,,LCD
182,망원2빗물펌프장 앞,마포구,서울특별시?마포구?동교로?7,37.551567,126.902847,06/07/2016,10,,LCD
183,하늘채코오롱아파트 건너편,마포구,서울특별시 마포구 연남로 30,37.565166,126.919395,06/07/2016,15,,LCD
184,SK망원동주유소 건너편,마포구,서울특별시 마포구 월드컵로 119?,37.558949,126.907753,06/07/2016,9,,LCD
185,마포 신수공원 앞,마포구,서울특별시 마포구 현석동 106-32,37.542545,126.934296,06/07/2016,15,,LCD
186,월드컵공원,마포구,서울특별시 마포구 하늘공원로 108-1,37.563965,126.898209,06/07/2016,40,,LCD
199,서울 월드컵 경기장,마포구,서울특별시 마포구 성산동 515,37.566845,126.896446,02/09/2016,30,,LCD
400,상암한화오벨리스크 1차 앞,마포구,서울특별시 마포구 구룡길 19,37.587524,126.883003,07/10/2015,15,,LCD
401,상암월드컵파크 10단지 앞,마포구,서울특별시 마포구 월드컵북로 502-36,37.586189,126.881615,07/10/2015,15,,LCD
402,상암월드컵파크 9단지 앞,마포구,서울특별시 마포구 월드컵북로 501,37.582855,126.879822,07/10/2015,20,,LCD
403,부엉이공원 앞,마포구,서울특별시 마포구 가양대로 189,37.58559,126.884727,07/10/2015,20,,LCD
405,DMC빌 앞,마포구,서울특별시 마포구 월드컵북로60길 13,37.582657,126.885788,07/10/2015,8,,LCD
406,상암월드컵파크 7단지 앞,마포구,서울특별시 마포구 상암산로1길 92,37.581314,126.880585,07/10/2015,15,,LCD
407,마포구 육아종합지원센터,마포구,서울특별시 마포구 상암산로1길 71,37.580631,126.883675,07/10/2015,8,,LCD
408,LG CNS앞,마포구,서울특별시 마포구 월드컵북로 424,37.580811,126.88665,07/10/2015,20,,LCD
409,누리꿈스퀘어 옆,마포구,서울특별시 마포구 월드컵북로 396,37.579399,126.88916,07/10/2015,25,,LCD
410,상암중학교 옆,마포구,서울특별시 마포구 상암산로1길 26,37.577496,126.887772,07/10/2015,10,,LCD
411,DMC홍보관,마포구,서울특별시 마포구 월드컵북로 366,37.577995,126.891472,07/10/2015,9,,LCD
412,DMC산학협력연구센터 앞,마포구,서울특별시 마포구 매봉산로 37,37.575802,126.890739,07/10/2015,20,,LCD
413,상암월드컵파크 3단지 후문,마포구,서울특별시 마포구 매봉산로 8,37.571476,126.889687,07/10/2015,9,,LCD
414,상암동주민센터 옆,마포구,서울특별시 마포구 매봉산로2길 16,37.57822,126.89447,07/10/2015,8,,LCD
415,DMC역 9번출구 앞,마포구,서울특별시 마포구 성암로 지하184,37.577469,126.897362,07/10/2015,10,,LCD
416,상암월드컵파크 1단지 교차로,마포구,서울특별시 마포구 월드컵북로 502-7,37.575665,126.894447,07/10/2015,12,,LCD
417,DMC역 2번출구 옆,마포구,서울특별시 은평구 수색로 지하175,37.575069,126.899918,07/10/2015,20,,LCD
418,월드컵경기장역 3번출구 옆,마포구,서울특별시 마포구 월드컵로 지하240,37.570721,126.898979,07/10/2015,10,,LCD
419,홈플러스 앞,마포구,서울특별시 마포구 월드컵로 240,37.56842,126.899429,07/10/2015,21,,LCD
420,서울시 공공자전거 상암센터,마포구,서울특별시 마포구 월드컵북로47길 10,37.566246,126.896179,07/10/2015,40,,LCD
421,마포구청 앞,마포구,서울특별시 마포구 월드컵로 212,37.565903,126.901184,07/10/2015,8,,LCD
422,문화비축기지,마포구,서울특별시 마포구 증산로 87,37.569084,126.894424,28/08/2017,13,,LCD
424,롯데하이마트 (상암월드컵점),마포구,서울특별시 상암동 1715-29,37.57362,126.898048,01/11/2017,15,,LCD
425,DMC첨단산업센터,마포구,서울특별시 마포구 성암로330,37.584503,126.885597,01/11/2017,10,,LCD
426,서울신용보증재단,마포구,서울특별시 마포구 마포대로 163,37.549061,126.954178,04/07/2018,10,,LCD
427,성산시영아파트,마포구,서울특별시 마포구 월드컵북로 260,37.569584,126.903816,26/02/2018,10,,LCD
432,마포중앙도서관,마포구,마포구 성산로 128,37.563339,126.908203,12/10/2018,10,,LCD
436,이대역 5번출구,마포구,마포구 대흥동 2-1,37.556591,126.94619,21/11/2018,10,,LCD
437,대흥역 1번출구,마포구,마포구 대흥동 105-4,37.54821,126.941383,04/12/2018,12,,LCD
438,성산2-1 공영주차장,마포구,마포구 성산동 199-46,37.56472,126.906769,22/11/2018,15,,LCD
439,마포어린이공원,마포구,마포구 마포동 364-4,37.535751,126.944038,06/12/2018,10,,LCD
440,하늘공원 입구,마포구,마포구 하늘공원로 108-2,37.570006,126.881149,02/08/2019,15,,LCD
487,신석초교앞 교차로 교통섬,마포구,마포구 용강동 494-6 ,37.54364,126.938309,03/04/2020,,26,QR
489,구룡근린공원,마포구,마포구 상암동 1583,37.583336,126.8834,06/04/2020,,10,QR
490,가온문화공원,마포구,마포구 상암동 1594,37.582077,126.887665,06/04/2020,,10,QR
491,월드컵파크 4단지,마포구,마포구 상암동 1761,37.575977,126.888069,06/04/2020,,10,QR
492,성산시영아파트 후문,마포구, 마포구 중동 77-11,37.573135,126.901848,03/06/2020,,10,QR
493,홍대입구역 6번출구,마포구,마포구 서교동 193-4,37.556576,126.928856,12/04/2020,,7,QR
494,신수동주민센터,마포구,마포구 신수동 458,37.547245,126.935028,16/09/2020,,5,QR
495,염리초등학교 앞,마포구,마포구 도화동 536,37.542431,126.946999,26/03/2020,,10,QR
497,합정동주민센터 앞,마포구,마포구 합정동 473-2,37.551754,126.9123,06/04/2020,,20,QR
498,연남동주민센터 앞,마포구,마포구 연남동 250-11,37.564651,126.922127,08/04/2020,,10,QR
3002,벽산상암스마트큐브 ,마포구,마포구 성산동 593-1,37.565044,126.903603,06/04/2020,,10,QR
3003,래미안공덕3차아파트,마포구,마포구 공덕동 457,37.548805,126.951073,02/04/2020,,5,QR
3005,마포구청 청사내,마포구,마포구 월드컵로 212,37.566246,126.902184,02/04/2020,,20,QR
3006, 상암월드컵파크5단지(상암중학교),마포구,마포구 상암동 1727,37.57991,126.888237,06/04/2020,,15,QR
3007,MBC 앞,마포구,마포구 상암동 1704,37.581947,126.890297,06/04/2020,,10,QR
3008,DMC역7번출구,마포구,마포구 상암동 1133,37.577114,126.898361,06/04/2020,,10,QR
3009,서교동사거리,마포구,마포구 서교동 418,37.55584,126.920433,12/04/2020,,10,QR
3010,홍대입구역 3번출구,마포구,마포구 동교동 155-27,37.558296,126.925385,12/04/2020,,15,QR
3011,경의선(노고산동),마포구,마포구 노고산동 112-12,37.553429,126.933792,08/04/2020,,10,QR
4202,프런트원(공덕역 4번출구 앞),마포구,마포구 마포대로 122,37.54604,126.926727,02/12/2020,,10,QR
4205,디지털미디어씨티역2번출구,마포구,마포구 상암동 1171-1,,,02/12/2020,,10,QR
4206,광흥창역5번출구,마포구,마포구 창전동 246-34,,,02/12/2020,,10,QR
4210,가좌행복주택 앞,마포구,마포구 중동 275,,,02/12/2020,,7,QR
700,KB국민은행 염창역 지점 앞,양천구,서울특별시 양천구 목동 559,37.546848,126.872772,29/06/2016,20,,LCD
701,목동사거리 부근,양천구,서울특별시 양천구 목동 813,37.532803,126.86393,29/06/2016,8,,LCD
702,목4동주민센터 옆,양천구,서울특별시 양천구 목동 904-3,37.532543,126.868729,29/06/2016,16,,LCD
703,오목교역 7번출구 앞,양천구,서울특별시 양천구 목동 451,37.524063,126.87558,29/06/2016,12,,LCD
704,남부법원검찰청 교차로,양천구,서울특별시 양천구 신정동 1095,37.523254,126.864906,29/06/2016,15,,LCD
706,신정네거리역,양천구,서울특별시 양천구 신월동 894,37.521881,126.851753,29/06/2016,15,,LCD
707,신정3동주민센터,양천구,서울특별시 양천구 중앙로 209,37.515156,126.854897,29/06/2016,10,,LCD
708,서울출입국관리사무소 앞,양천구,서울특별시 양천구 신정동 319-3,37.51897,126.869965,29/06/2016,16,,LCD
709,신정3동 현장민원실 앞,양천구,서울특별시 양천구 신정동 760-2,37.511585,126.84156,29/06/2016,20,,LCD
710,금옥여고보도육교,양천구,신정로 213,,,14/09/2020,,10,QR
711,신일해피트리아파트 앞,양천구,서울특별시 양천구 신월동 1063-4,37.517059,126.848488,29/06/2016,20,,LCD
712,강월초교입구 사거리,양천구,서울특별시 양천구 신월동 905,37.516998,126.838318,29/06/2016,14,,LCD
713,양서중학교 옆,양천구,서울특별시 양천구 신월동 790,37.533047,126.829956,29/06/2016,20,,LCD
714,한국SGI 양천문화회관 앞,양천구,서울특별시 양천구 신월동 790,37.532547,126.830803,29/06/2016,10,,LCD
716,신정6동 주민센터 인근,양천구,서울특별시 양천구 목동서로 355,37.517281,126.864334,06/07/2016,15,,LCD
719,홍익병원앞 교차로,양천구,서울특별시 양천구 등촌로 2,37.530369,126.864258,06/07/2016,10,,LCD
720,서울강월초등학교 앞,양천구,서울특별시 양천구 신월로 97,37.516197,126.8349,06/07/2016,10,,LCD
722,LG전자베스트샵 신정점,양천구,서울특별시 양천구 신월로 328,37.521435,126.857384,01/11/2017,10,,LCD
723,SBS방송국,양천구,서울특별시 양천구 목동서로161,37.529163,126.872749,01/11/2017,15,,LCD
724,계남공원 입구 주출입구 좌측,양천구,서울특별시 양천구 신정동 621-14,37.510681,126.857399,01/11/2017,15,,LCD
725,양강중학교앞 교차로,양천구,서울특별시 양천구 남부순환로88길5-16,37.524334,126.850548,01/11/2017,15,,LCD
726,목동3단지 시내버스정류장,양천구,서울특별시 양천구 목동중앙로 49 ,37.534389,126.869598,01/11/2017,15,,LCD
729,서부식자재마트 건너편,양천구,서울특별시 양천구 신정동 236 ,37.51038,126.866798,01/11/2017,10,,LCD
731,서울시 도로환경관리센터,양천구,서울특별시 양천구 목동동로 316-6,37.5299,126.876541,01/11/2017,10,,LCD
732,신월동 이마트,양천구,서울특별시 양천구 화곡로 59,37.539551,126.8283,01/11/2017,10,,LCD
733,신정이펜하우스314동,양천구,서울특별시 양천구 신정이펜1로50 ,37.514099,126.831001,01/11/2017,10,,LCD
734,신트리공원 입구,양천구,서울특별시 양천구 신정동 310-8 ,37.51395,126.856056,01/11/2017,10,,LCD
735,영도초등학교,양천구,서울특별시 양천구 목동중앙로 70 ,37.53643,126.871521,01/11/2017,10,,LCD
736,오솔길공원,양천구,서울특별시 양천구 남부순환로70길11-9,37.52219,126.8367,01/11/2017,10,,LCD
737,장수공원,양천구,서울특별시 양천구 신월로 894 ,37.52256,126.84948,01/11/2017,10,,LCD
739,신월사거리,양천구,서울특별시 양천구 신월동 263,37.536201,126.827797,01/11/2017,15,,LCD
740,으뜸공원,양천구,서울특별시 양천구 가로공원로 133,37.536369,126.831711,01/11/2017,10,,LCD
741,화곡로 입구 교차로,양천구,서울특별시 양천구 신월동 258,37.53952,126.825401,01/11/2017,10,,LCD
742,등촌역 5번 출구 뒤,양천구,서울특별시 양천구 등촌로 236,37.550732,126.864578,01/11/2017,10,,LCD
743,현대6차아파트 101동 옆,양천구,서울특별시 양천구 신정동 735-5,37.5089,126.842682,01/11/2017,10,,LCD
744,신목동역 2번 출구,양천구,서울특별시 양천구 목동중앙로 212 앞,37.543842,126.882545,28/10/2020,,10,QR
745,강서초등학교,양천구,서울특별시 양천구 오목로 31 부근,37.522282,126.839699,01/11/2017,10,,LCD
746,목동2단지 상가,양천구,서울특별시  양천구 목동 902-5 ,37.536503,126.877747,01/11/2017,10,,LCD
747,목동3단지 상가,양천구,서울특별시 양천구 목동 903-6,37.53458,126.875648,01/11/2017,10,,LCD
748,목동운동장,양천구,서울특별시 양천구 안양천로 939,37.530251,126.879303,01/11/2017,15,,LCD
749,이대 목동병원 앞,양천구,서울특별시 양천구 목동 911-10,37.537228,126.886612,04/07/2018,10,,LCD
750,연의근린공원 건너편,양천구,서울특별시 양천구 신정로7길 92,37.512157,126.835625,26/02/2018,10,,LCD
752,성원2차 아파트,양천구,서울특별시 양천구 목동중앙남로 100,37.542183,126.863304,26/02/2018,10,,LCD
754,목동1단지아파트 118동 앞 (월촌초등학교 정류소 옆,양천구, 양천구 목동서로 38,37.541142,126.876678,27/09/2018,10,,LCD
755,목동1단지아파트 상가 앞 (월촌중학교 버스정류소 옆),양천구,양천구 목동서로 38,37.537868,126.881409,27/09/2018,10,,LCD
756,목동주차장,양천구,양천구 목동동로 298,37.52668,126.876167,27/09/2018,10,,LCD
757,신정이펜하우스 1단지아파트 입구 사거리,양천구,양천구 신정이펜1로 99,37.514278,126.828743,27/09/2018,10,,LCD
758,한사랑교회 앞,양천구,양천구 목동동로 33,37.514721,126.8592,27/09/2018,10,,LCD
759,보아스아파트 앞,양천구,양천구 오목로3길 32,37.524071,126.8386,20/09/2018,9,,LCD
760,잣절보도육교 아래,양천구, 양천구 남부순환로 699,37.506821,126.844299,15/10/2018,10,,LCD
762,오목로 무중력지대 앞,양천구, 양천구 신목로 126,37.524551,126.877052,27/09/2018,10,,LCD
763,목동11단지 아파트,양천구,목동동로 10,37.510658,126.859161,05/11/2018,10,,LCD
764,목동청소년수련관,양천구,양천구 목동동로 323,37.531029,126.875893,26/10/2018,30,,LCD
765,오목교역 3번출구,양천구,서울특별시 양천구 목동동로 270,37.524776,126.875481,02/01/2019,10,,LCD
766,신목동역 3번출구,양천구,양천구 목동 136-1,37.54426,126.88325,12/03/2019,15,,LCD
767,신정숲속마을아파트,양천구,양천구 신정로 110,37.505745,126.836311,11/03/2020,,10,QR
768,목동5단지아파트 501동,양천구,양천구 목동,37.535919,126.882446,12/03/2020,,15,QR
769,CBS방송국 앞,양천구,양천구 목동 917-1,37.527855,126.874672,15/03/2020,,20,QR
770,목동역5번출구 교통정보센터 앞,양천구,양천구 목동로 186,37.525715,126.864868,13/03/2020,,10,QR
771,목동아파트 703동 앞,양천구,양천구 목동로 186 ,37.527706,126.870064,13/03/2020,,8,QR
773,"염창역 3, 4번 출구 사이",양천구,공항대로 630,37.546707,126.874573,16/03/2020,,10,QR
774,등촌역 4번 출구 ,양천구,양천구 목동 603-2,37.549507,126.867218,16/03/2020,,11,QR
775,세종그랑시아 앞(102동),양천구,양천구 목동중앙남로3가길 59,37.538376,126.863831,16/03/2020,,10,QR
776,목마공원,양천구,양평교 하부,37.538742,126.885681,13/03/2020,,15,QR
777,신월6차보람아파트 앞,양천구,양천구 곰달래로7길 7,37.530128,126.834778,11/03/2020,,10,QR
779,양천나눔누리센터,양천구,양천구 중앙로 250,37.518845,126.853684,09/03/2020,,10,QR
780,신정교 하부,양천구,양천구 신정동 871-37,37.516907,126.877586,11/03/2020,,15,QR
781,신정보도육교 아래,양천구,양천구 신목로 10,37.517593,126.876556,11/03/2020,,10,QR
782,서남병원 후문,양천구,양천구 신정이펜1로 20,37.511673,126.832741,15/03/2020,,20,QR
785,"양천구청, 보건소 사잇길",양천구,양천구 신정동 321-8,37.517326,126.866303,15/03/2020,,15,QR
786,목동아파트 8단지 상가동 앞,양천구,양천구 목동서로 280,37.520439,126.868401,18/03/2020,,9,QR
787,양천아파트 입구,양천구,양천구 목동로3길 41,37.507904,126.862648,09/03/2020,,10,QR
788,양천구청역 2번출구 옆,양천구,양천구 목동로3길 57,37.512379,126.865555,06/03/2020,,15,QR
790,화곡고가 사거리,양천구,양천구 신월동 455-5 ,37.527607,126.848755,11/03/2020,,40,QR
791,현대하이페리온,양천구,오목로300(205동앞 서쪽방향),37.52478,126.869835,13/03/2020,,15,QR
792,목동트라팰리스 웨스턴에비뉴,양천구,오목로299(이마트 출입구측),37.525372,126.870926,13/03/2020,,20,QR
793,목동5단지아파트 534동,양천구,서울특별시 양천구 목동동로 350 목동신시가지아파트5단지,37.53355,126.878143,12/03/2020,,15,QR
794,양천문화회관,양천구,양천구 신정동 323-1,37.516842,126.862953,20/04/2020,,10,QR
795,양천 해누리타운,양천구,양천구 신정동 327-4,37.515419,126.8638,20/04/2020,,10,QR
796,목동아파트 14단지 B상가 앞,양천구,양천구 신정동 330,37.514664,126.871941,20/04/2020,,10,QR
797,목동아파트 1422동 1434동 사잇길,양천구,양천구 신정동 332-2,37.515156,126.87249,20/04/2020,,10,QR
1101,개화동상사마을종점 버스정류장,강서구,서울특별시 강서구 개화동로5길 3-8,37.581612,126.798599,24/04/2017,10,,LCD
1102,방화사거리 마을버스 버스정류장,강서구,서울특별시 강서구 양천로17길 6,37.573643,126.811806,24/04/2017,10,,LCD
1103,방화역 4번출구앞,강서구,서울특별시 강서구 금낭화로 135,37.577221,126.812195,22/06/2017,10,,LCD
1105,방화근린공원,강서구,서울특별시 강서구 금낭화로 176,37.581623,126.812653,24/04/2017,10,,LCD
1106,신방화사거리,강서구,서울특별시 강서구 방화대로 342,37.573032,126.816452,20/06/2017,10,,LCD
1108,공항시장역 2번출구 뒤,강서구,서울특별시 강서구 방화동로 지하 30,37.56356,126.81015,24/04/2017,9,,LCD
1109,공항시장역 4번출구,강서구,서울특별시 강서구 방화동로 지하 30,37.563347,126.810486,24/04/2017,6,,LCD
1110,공항중학교앞,강서구,서울특별시 강서구 방화대로 241,37.562683,126.816238,20/06/2017,10,,LCD
1111,마곡엠밸리6_7단지 마곡중학교,강서구,서울특별시 강서구 마곡중앙5로 58,37.566982,126.8218,24/04/2017,15,,LCD
1112,마곡엠밸리4단지 정문,강서구,서울특별시 강서구 마곡서로 175,37.568577,126.824776,24/04/2017,15,,LCD
1113,서남환경공원 버스정류장,강서구,서울특별시 강서구 양천로 201,37.573093,126.822899,24/04/2017,15,,LCD
1114,서남물재생센터 버스정류장,강서구,서울특별시 강서구 양천로 200,37.572781,126.826279,24/04/2017,15,,LCD
1115,등촌역 1번출구옆,강서구,서울특별시 강서구 공항대로59길 8,37.551666,126.86409,22/06/2017,10,,LCD
1117,스타벅스앞,강서구,서울특별시 강서구 공항대로 329,37.558197,126.844261,22/06/2017,10,,LCD
1118,증미역 3번출구뒤(등촌두산위브센티움오피스텔),강서구,서울특별시 강서구 양천로 지하 560,37.557461,126.861458,24/04/2017,10,,LCD
1119,염창동 한마음아파트앞(염창동 빛나는 음악학원앞),강서구,서울특별시 강서구 양천로 637,37.554253,126.867561,24/04/2017,6,,LCD
1120,대림경동아파트앞,강서구,서울특별시 강서구 허준로 121,37.565189,126.853996,24/04/2017,25,,LCD
1121,가양레포츠센터앞,강서구,서울특별시 강서구 양천로61길 101,37.559479,126.86438,24/04/2017,15,,LCD
1122,황금내근린공원,강서구,서울특별시 강서구 허준로 221-40,37.561932,126.863869,24/04/2017,10,,LCD
1124,발산역 6번 출구 뒤,강서구,서울특별시 강서구 공항대로 280,37.557968,126.838287,11/12/2020,,11,QR
1125,명덕고교입구(영종빌딩),강서구,서울특별시 강서구 강서로 304,37.552914,126.836571,22/06/2017,10,,LCD
1126,우장산역 1번출구옆(우장산아이파크105동앞),강서구,서울특별시 강서구 강서로 지하 262,37.548908,126.836563,24/04/2017,7,,LCD
1127,화곡역(에이스정형외과앞) 버스정류장,강서구,서울특별시 강서구 화곡로 157,37.540981,126.838547,24/04/2017,10,,LCD
1128,화곡역 6번출구,강서구,서울특별시 강서구 화곡로 지하 168,37.541412,126.840225,20/06/2017,10,,LCD
1129,화곡역 1번 출구 앞,강서구,서울특별시 강서구 화곡로 지하 168,37.542099,126.840218,24/04/2017,10,,LCD
1130,화곡본동시장 버스정류장,강서구,서울특별시 강서구 화곡로 196,37.542751,126.842621,24/04/2017,7,,LCD
1131,꿈돌이공원 앞,강서구,서울특별시 강서구 화곡로 232,37.546444,126.845459,24/04/2017,8,,LCD
1132,등촌역 7번출구,강서구,서울특별시 강서구 공항대로 지하 529,37.551109,126.863708,24/04/2017,10,,LCD
1135,강서구의회,강서구,서울특별시 강서구 등촌로 185,37.546532,126.862549,24/04/2017,10,,LCD
1136,등촌2파출소,강서구,서울특별시 강서구 등촌로 167,37.544788,126.862,24/04/2017,10,,LCD
1137,등촌2동주민센터,강서구,서울특별시 강서구 등촌로 143,37.541431,126.86322,24/04/2017,10,,LCD
1139,용문사 버스정류장,강서구,서울특별시 강서구 등촌로 95,37.536991,126.863365,24/04/2017,8,,LCD
1140,목동사거리 버스정류장,강서구,서울특별시 강서구 등촌로 19,37.531399,126.863609,24/04/2017,15,,LCD
1141,곰달래 문화복지센터 1-1,강서구,서울특별시 강서구 강서로5길 50,37.52906,126.84848,24/04/2017,10,,LCD
1145,곰달래 문화복지센터 1-2,강서구,서울특별시 강서구 강서로5길 50,37.528919,126.848083,24/04/2017,10,,LCD
1146,곰달래사거리,강서구,서울특별시 강서구 곰달래로 51,37.530338,126.838257,24/04/2017,,10,QR
1148,볏골공원,강서구,서울특별시 강서구 까치산로4길 22,37.54147,126.84478,24/04/2017,10,,LCD
1149,신방화역환승주차장,강서구,서울특별시 강서구 마곡서1로 111-12,37.567284,126.818275,31/08/2017,13,,LCD
1150,송정역 1번출구,강서구,서울특별시 강서구 공항대로3길 18,37.56155,126.810478,01/11/2017,10,,LCD
1151,마곡역1번출구,강서구,서울특별시 강서구 마곡동 727-716,37.560234,126.823471,01/11/2017,25,,LCD
1152,마곡역교차로,강서구,서울특별시 강서구 마곡동 728-168,37.558666,126.826614,01/11/2017,10,,LCD
1153,"발산역 1번, 9번 인근 대여소",강서구,서울특별시 강서구 공항대로 281,37.55891,126.838097,01/11/2017,10,,LCD
1155,기쁜우리복지관,강서구,서울특별시 강서구 가양동 1458-15 ,37.56926,126.848419,01/11/2017,10,,LCD
1157,강서구청,강서구,서울특별시 강서구 화곡로 302,37.550659,126.84977,01/11/2017,8,,LCD
1158,가양역 8번출구,강서구,서울특별시 강서구 양천로 지하 485,37.561035,126.854813,28/11/2017,20,,LCD
1159,서서울모터리움앞,강서구,서울특별시 강서구 양천로53길 30,37.565853,126.846596,28/11/2017,20,,LCD
1160,양천향교역 7번출구앞,강서구,서울특별시 강서구 양천로 지하 341,37.56768,126.840897,31/12/2020,,20,QR
1161,강서면허시험장앞,강서구,서울특별시 강서구 남부순환로 171,37.549694,126.819664,28/11/2017,10,,LCD
1162,공항초등학교건너편,강서구,서울특별시 강서구 마곡서1로 68,37.562679,126.820473,28/11/2017,10,,LCD
1163,방화동강서기동대앞,강서구,서울특별시 강서구 방화대로34길 65,37.570499,126.820084,28/11/2017,10,,LCD
1165,마곡중학교 후문,강서구,서울특별시 강서구 마곡중앙5로 58,37.568447,126.821648,08/12/2017,20,,LCD
1166,강서구립등빛도서관,강서구,서울특별시 강서구 강서로62길 48,37.562569,126.842461,22/12/2017,10,,LCD
1167,마곡수명산파크3단지 교차로,강서구,서울특별시 강서구 수명로 72,37.553467,126.825928,22/12/2017,15,,LCD
1168,마곡엠밸리10단지 앞,강서구,서울특별시 강서구 마곡중앙1로 72,37.560226,126.819069,26/02/2018,10,,LCD
1169,염창역 1번 출구,강서구,강서구 공항대로 625,37.547199,126.874489,04/10/2018,8,,LCD
1170,강서구보건소 (삼성디지털 프라자),강서구,강서구 공항대로 571 ,37.549179,126.868797,04/10/2018,11,,LCD
1171,염창동 새마을금고 건너편 (모닝글로리),강서구,강서구 양천로 696,37.550049,126.873161,04/10/2018,8,,LCD
1172,가양3동 주민센터,강서구,강서구 허준로 202,37.561249,126.86058,04/10/2018,8,,LCD
1173,강서구청사거리(SH타워),강서구,강서구 공항대로 411 ,37.556259,126.853317,04/10/2018,15,,LCD
1174,강서구청사거리(부민병원),강서구,강서구 공항대로 395 ,37.556599,126.851471,04/10/2018,9,,LCD
1175,대한항공 인력개발센터,강서구,강서구 공항대로 453 ,37.554379,126.857536,04/10/2018,15,,LCD
1177,수명중?고교,강서구,"강서구 수명로1길 16, 401동 앞",37.55011,126.823677,04/10/2018,10,,LCD
1178,개화산역 2번 출구,강서구,강서구 양천로 22,37.572472,126.806168,10/10/2018,10,,LCD
1180,마곡엠밸리 15단지(1502동) 건너편,강서구,강서구 마곡중앙로 36,37.557468,126.82972,04/10/2018,15,,LCD
1181,농수산식품공사 (강서지사),강서구,강서구 발산로 40,37.551044,126.818497,10/10/2018,10,,LCD
1182,KBS 스포츠월드,강서구,강서구 공항대로 376,37.556877,126.848808,10/10/2018,20,,LCD
1183,KC 대학교,강서구,강서구 까치산로 24길 47,37.548321,126.853401,30/10/2018,10,,LCD
1184,마곡13단지,강서구,강서구 공항동 1343,37.55645,126.815979,10/10/2018,15,,LCD
1185,등촌9단지,강서구,강서구 화곡로 63가길 92 (등촌동 704),37.562901,126.849472,10/10/2018,10,,LCD
1186,송정중학교,강서구,강서구 공항동 1342,37.554729,126.816093,10/10/2018,10,,LCD
1187,강서수산물도매시장,강서구,강서구 외발산동 424,37.55302,126.818367,14/12/2018,15,,LCD
1188,롯데중앙연구소,강서구,강서구 마곡동 301-3,37.571381,126.828339,20/11/2018,8,,LCD
1190,마곡역 교차로(2번출구),강서구,강서구 마곡동 727-747 ,37.560501,126.826653,20/11/2018,10,,LCD
1191,마곡역 교차로(NH농협),강서구,강서구 마곡동 727-925,37.560242,126.827164,20/11/2018,9,,LCD
1192,마곡수명산파크 209동 건너편,강서구,강서구 내발산동 741-8,37.555538,126.826759,26/11/2018,10,,LCD
1193,마곡센트럴타워 1차,강서구,강서구 마곡동 727-1136,37.559471,126.832077,20/11/2018,15,,LCD
1194,센서텍㈜,강서구,강서구 마곡동 727-457,37.563301,126.836823,20/11/2018,10,,LCD
1195,코오롱One&Only타워,강서구,강서구 마곡동 727-525,37.564129,126.834312,20/11/2018,20,,LCD
1196,서울식물원(문화센터) 건너편,강서구,강서구 마곡동 727-286,37.568241,126.835831,20/11/2018,15,,LCD
1197,엠펠리체 호텔 건너편,강서구,강서구 마곡동 727-1187,37.560242,126.835808,20/11/2018,20,,LCD
1198,LG 사이언스파크,강서구,강서구 마곡동 727-925,37.56255,126.827438,20/11/2018,20,,LCD
1199,우장산역 3번출구,강서구,강서구 화곡동 1006-2,37.547821,126.836128,04/12/2018,13,,LCD
1200,개화광역환승센터,강서구,강서구 개화동 492-22,37.578449,126.798973,14/12/2018,10,,LCD
2701,마곡나루역 5번출구 뒤편,강서구,강서구 마곡동 761-5,37.565201,126.827316,14/11/2018,15,,LCD
2702,마곡 엠밸리2단지,강서구,강서구 마곡동 735-1,37.56918,126.819443,14/11/2018,20,,LCD
2703,서울도시가스 앞 ,강서구,강서구 공항대로 607 ,37.547485,126.872025,16/03/2020,,20,QR
2704,홈플러스(강서점),강서구,강서구 화곡로 398 ,37.558334,126.854065,16/03/2020,,10,QR
2706,강서공업고등학교 앞,강서구,"강서구 방화대로47가길 22, 411동 앞",37.576317,126.816498,20/03/2020,,13,QR
2707,한강아파트,강서구,강서구 허준로 23,37.57037,126.844414,20/03/2020,,13,QR
2708,강서한강자이타워 앞,강서구,강서구 양천로 401 ,37.564682,126.848908,20/03/2020,,15,QR
2709,강변아파트 310동 앞,강서구,강서구 가양동 1459-8 ,37.564587,126.856918,16/03/2020,,20,QR
2710,라이품 공영주차장 앞,강서구,강서구 강서로 515,37.570728,126.841568,20/03/2020,,30,QR
2711,가로공원공영주차장 1번 출구,강서구,강서구 가로공원로 193,37.537361,126.837448,18/03/2020,,9,QR
2712,화곡터널입구교차로,강서구,강서구 가로공원로 238 ,37.538338,126.842392,17/03/2020,,10,QR
2713,우장초등학교 앞,강서구,강서구 화곡로 263,37.548534,126.846672,17/03/2020,,13,QR
2714,발산1동주민센터교차로,강서구,강서구 강서로47길 86 ,37.553173,126.831238,17/03/2020,,10,QR
2715,마곡나루역 2번 출구 ,강서구,강서구 마곡중앙5로 6 ,37.566883,126.827683,27/05/2020,,25,QR
2716,롯데 R&D 센터,강서구,강서구 마곡동 301-2 ,37.569176,126.828217,13/03/2020,,30,QR
2717,LG유플러스 마곡사옥,강서구,강서구 마곡중앙8로 71,37.561337,126.833901,15/03/2020,,30,QR
2718,마곡수명산파크1단지,강서구,강서구 마곡동 728-148 ,37.554993,126.831894,17/03/2020,,15,QR
2719,마곡문화공원,강서구,강서구 마곡중앙8로 20,37.561371,126.830124,16/03/2020,,20,QR
2720,힐스테이트에코,강서구,강서구 마곡동 727-1120,37.559589,126.829781,16/03/2020,,30,QR
2721,등촌1-10단지 교차로,강서구,강서구 강서로 419,37.563145,126.839562,15/03/2020,,12,QR
2722,마곡 문영비지웍스,강서구,강서구 강서로 391,37.560604,126.83873,15/03/2020,,20,QR
2723,마곡 필네이처,강서구,강서구 마곡동 727-1190,37.560894,126.836693,16/03/2020,,13,QR
2724,(재)FITI시험연구원,강서구,강서구 마곡동 727-211,37.568665,126.838799,20/03/2020,,25,QR
2725,서울식물원 식물문화센터,강서구,강서구 마곡동 727-305,37.569294,126.836197,12/03/2020,,20,QR
2727,서울식물원 잔디마당 앞,강서구,강서구 마곡동 727-558,37.564087,126.830849,15/03/2020,,20,QR
2728,마곡나루역 3번 출구,강서구,강서구 마곡동 372-23,37.565804,126.828079,12/03/2020,,30,QR
2729,넥센 유니버시티 앞,강서구,강서구 마곡동 301-2,37.569485,126.828095,13/03/2020,,30,QR
2730,마곡메가박스 앞,강서구,강서구 마곡동 727-1179,37.559128,126.834953,15/03/2020,,30,QR
2731,명덕고교,강서구,강서구 마곡동 728-46,37.554951,126.834732,16/03/2020,,14,QR
2732,마곡수명산 1-2단지 ,강서구,강서구 마곡동 728-350,37.555145,126.829453,17/03/2020,,15,QR
2733,마곡13단지 정문 앞,강서구,강서구 마곡동 730-417 ,37.55854,126.820107,20/03/2020,,15,QR
2735,마곡 공공청사,강서구,강서구 마곡서로 101 ,37.562294,126.823952,13/03/2020,,30,QR
2737,까치산역 3번 출구,강서구,강서로 45,37.531693,126.846588,21/03/2020,,10,QR
2739,수명산파크1단지교차로,강서구,강서로47길 142,37.553585,126.828568,17/03/2020,,10,QR
2740,마곡레포츠센터,강서구,양천로 251,37.57272,126.832069,20/03/2020,,30,QR
2741,마곡수명산파크5-6단지,강서구,강서구 내발산동 751-1,37.550617,126.826881,17/03/2020,,8,QR
2742,강서구민올림픽체육센터,강서구,화곡로65길 62,37.559402,126.850441,17/03/2020,,10,QR
2743,동신아파트 104동 앞,강서구,강서로532,,,01/06/2020,,11,QR
2744,강서세무서앞,강서구,마곡서1로 60,,,27/05/2020,,20,QR
2745,수명초등학교,강서구,수명로1길 84,,,28/05/2020,,9,QR
2746,수명산파크4단지411동 앞,강서구,내발산동 751-6,,,18/06/2020,,10,QR
3753,공항중학교 버스정류장,강서구,공항동9-12,,,09/11/2020,,10,QR
3756,마곡힐스테이트 정문,강서구,마곡중앙3로74,,,09/11/2020,,10,QR
3760,발산역 8번 출구,강서구,마곡동727-1222,,,23/11/2020,,10,QR
3761,나이아가라관광호텔,강서구,양천로743,,,11/11/2020,,10,QR
3763,등촌태영아파트,강서구,양천로590,,,11/11/2020,,10,QR
3765,문소빌딩,강서구,화곡로229,,,11/11/2020,,10,QR
3766,강서문화센터,강서구,화곡로215,,,24/11/2020,,10,QR
3792,화곡본동시장 입구,강서구,화곡로206,,,21/12/2020,,10,QR
3767,대원빌딩,강서구,화곡로228,,,11/11/2020,,10,QR
3772,길성그랑프리텔아파트,강서구,방화대로319,,,09/11/2020,,10,QR
3775,가양오토갤러리,강서구,강서로74길58,,,10/11/2020,,10,QR
3776,김포공항교차로,강서구,방화동651-1,,,09/11/2020,,10,QR
3778,김포공항입구 교차로,강서구,방화동621-6,,,09/11/2020,,10,QR
3779,유광사여성병원,강서구,강서로191,,,24/11/2020,,10,QR
3780,등촌서광아파트,강서구,공항대로45길68-6,,,11/11/2020,,10,QR
3781,강서아동복지센터,강서구,금낭화로26가길 130,,,10/11/2020,,20,QR
3782,겸재정선미술관,강서구,강서구 양천로47길 24 ,,,10/11/2020,,10,QR
3784,벽산아파트,강서구,양천로47길 112 ,,,10/11/2020,,10,QR
3794,안양천합수부(현대3차아파트),강서구,강서구 염창동 222,,,21/12/2020,,8,QR
3786,강서힐스테이트 상가 앞,강서구,강서구 강서로 242,,,21/12/2020,,10,QR
3787,가양나들목,강서구,강서구 가양동 1456-6,,,10/11/2020,,15,QR
3788,정곡나들목,강서구,강서구 방화동 57-5번지,,,10/11/2020,,15,QR
3789,염창나들목,강서구,강서구 염창동 223-4번지,,,11/11/2020,,15,QR
3795,공항신성빌딩 앞,강서구,강서구 공항대로 49-2 ,,,21/12/2020,,8,QR
3796,송정역 3번출구 앞,강서구,강서구 공항대로 48,,,21/12/2020,,10,QR
3797,마곡수명산파크7단지 710동 앞,강서구,강서구 내발산동 755,,,02/11/2020,,10,QR
3798,그랜드아이파트아파트 앞,강서구,강서구 화곡로 347,,,02/11/2020,,11,QR
3769,가양동 이마트 앞,강서구,강서구 화곡로 347,,,24/12/2020,,10,QR
1901,신도림동주민센터 앞,구로구,서울특별시 구로구 신도림로 40,37.507332,126.87973,11/05/2017,10,,LCD
1904,도림천역 1번 출구 앞,구로구,서울특별시 구로구 경인로67길 160,37.51424,126.882874,11/05/2017,10,,LCD
1906,신도림역 1번 출구 앞,구로구,서울특별시 구로구 경인로 688,37.50972,126.890099,11/05/2017,20,,LCD
1907,구일우성(아) 육교 밑,구로구,서울특별시 구로구 구일로2길 59,37.489632,126.876259,11/05/2017,12,,LCD
1908,해원리바파크 육교 밑,구로구,서울특별시 구로구 구일로 110,37.495285,126.872162,11/05/2017,10,,LCD
1910,낙원교회 맞은편,구로구,서울특별시 구로구 구로동로42길 43,37.497505,126.884377,11/05/2017,5,,LCD
1911,구로디지털단지역 앞,구로구,서울특별시 구로구 시흥대로 577-2,37.48494,126.901321,11/05/2017,10,,LCD
1912,한신휴아파트 앞,구로구,서울특별시 구로구 디지털로31길 120,37.4888,126.890663,11/05/2017,10,,LCD
1913,구로리공원,구로구,서울특별시 구로구 구로중앙로 13,37.491032,126.892151,11/05/2017,10,,LCD
1914,대림역4번출구,구로구,서울특별시 구로구 도림천로 351,37.494404,126.894447,27/06/2017,10,,LCD
1916,구로중학교앞,구로구,서울특별시 구로구 구로중앙로 48,37.494141,126.889984,11/05/2017,10,,LCD
1920,서울미래초등학교 사거리,구로구,서울특별시 구로구 새말로 73,37.504379,126.888298,11/05/2017,10,,LCD
1924,삼부르네상스파크빌,구로구,서울특별시 구로구 남부순환로 1299,37.478741,126.895096,11/05/2017,10,,LCD
1925,동양미래대학교 정문 옆,구로구,서울특별시 구로구 경인로 445,37.499889,126.867699,27/06/2017,20,,LCD
1928,고척스카이돔구장 광장,구로구,서울특별시 구로구 경인로 430,37.49947,126.868401,11/05/2017,10,,LCD
1929,고척근린공원 고척도서관 앞,구로구,서울특별시 구로구 고척로45길 31,37.505135,126.85276,11/05/2017,10,,LCD
1930,개봉지구대 개봉치안센터,구로구,서울특별시 구로구 경인로 293,37.497684,126.853729,11/05/2017,7,,LCD
1931,개봉역(북측광장),구로구,서울특별시 구로구 경인로40길 47,37.494995,126.858253,27/06/2017,10,,LCD
1933,개봉푸르지오아파트 상가,구로구,서울특별시 구로구 남부순환로 775,37.501583,126.84687,11/05/2017,10,,LCD
1936,개봉역 1번 출구 자전거보관서쪽,구로구,서울특별시 구로구 경인로40길 47,37.494282,126.859215,22/06/2017,10,,LCD
1937,한진아파트 입구,구로구,서울특별시 구로구 개봉로3길 87,37.486061,126.852013,11/05/2017,15,,LCD
1941,오류동역 2번출구,구로구,서울특별시 구로구 서해안로 2340-10,37.493938,126.844055,22/06/2017,10,,LCD
1943,온수역 북측,구로구,서울특별시 구로구 경인로3길 지하 64,37.49279,126.824524,22/06/2017,10,,LCD
1946,구로역 광장,구로구,서울특별시 구로구 구로중앙로 174,37.503117,126.880386,22/06/2017,10,,LCD
1951,천왕이펜하우스 4단지 상가 앞,구로구,서울특별시 구로구 천왕로 9,37.480289,126.8395,22/06/2017,20,,LCD
1952,천왕연지타운2단지 앞,구로구,서울특별시 구로구 오리로 1102-10,37.482105,126.845726,22/06/2017,15,,LCD
1953,천왕역 4번출구 뒤,구로구,서울특별시 구로구 오리로 지하 1154,37.486385,126.839211,22/06/2017,20,,LCD
1955,디지털입구 교차로,구로구,서울특별시 구로구 시흥대로 551,37.482883,126.901039,27/07/2017,10,,LCD
1956,도야미리숯불갈비 앞,구로구,서울특별시 구로구 신도림로 67,37.51001,126.88205,13/11/2017,10,,LCD
1957,구일고등학교 정문,구로구,서울특별시 구로구 구일로 90-51,37.493401,126.874329,13/11/2017,15,,LCD
1958,강서수도사업소민원센터,구로구,서울특별시 구로구 가마산로 272,37.495781,126.890121,13/11/2017,10,,LCD
1959,구로구의회 앞,구로구,서울특별시 구로구 가마산로25길 9-24,37.496456,126.889587,13/11/2017,10,,LCD
1960,화광신문사 앞,구로구,서울특별시 구로구 공원로 68,37.50285,126.889481,13/11/2017,10,,LCD
1961,신도림테크노근린공원,구로구,서울특별시 구로구 새말로 121-15,37.508194,126.891304,13/11/2017,15,,LCD
1962,가리봉동주민센터,구로구,서울특별시 구로구 디지털로26길 5,37.481602,126.892799,13/11/2017,15,,LCD
1964,원메디타운 앞,구로구,서울특별시 구로구 경인로 403,37.49789,126.864502,13/11/2017,10,,LCD
1965,삼환로즈빌아파트 105동 옆,구로구,서울특별시 구로구 경인로 343,37.497231,126.859192,13/11/2017,15,,LCD
1966,한마을아파트 정문상가,구로구,서울특별시 구로구 경인로 382,37.496498,126.863098,13/11/2017,10,,LCD
1967,참새공원(백곡경노당),구로구,서울특별시 구로구 고척로21길 85,37.505138,126.844337,13/11/2017,10,,LCD
1968,동인오피스텔 건너편 소공원,구로구,서울특별시 구로구 고척로22길 64,37.498482,126.847504,13/11/2017,12,,LCD
1969,궁동생태공원,구로구,서울특별시 구로구 오리로 1352,37.501904,126.828964,13/11/2017,10,,LCD
1971,오정초교 앞 보도육교,구로구,서울특별시 구로구 경인로2길 10,37.490723,126.826393,13/11/2017,10,,LCD
1973,오리로와 서해안도로 교차로 앞,구로구,서울특별시 구로구 오리로 1181,37.488598,126.836494,13/11/2017,10,,LCD
1974,신도림2차e편한세상아파트 203동 앞,구로구,서울특별시 구로구 신도림로 16,37.50518,126.882538,13/11/2017,10,,LCD
1975,대림역 1번 출입구 밑,구로구,서울특별시 구로구 도림천로 351,37.49258,126.894737,13/11/2017,10,,LCD
1976,남구로역 5번 출입구 앞,구로구,서울특별시 구로구 도림로 지하 7,37.48568,126.886703,13/11/2017,10,,LCD
1977,천왕역 1번 출입구 앞,구로구,서울특별시 구로구 오리로 지하 1154,37.48621,126.838821,13/11/2017,15,,LCD
